"","animal_id","animal_name","animal_type","primary_color","secondary_color","sex","dob","intake_date","intake_condition","intake_type","intake_subtype","reason_for_intake","outcome_date","crossing","jurisdiction","outcome_type","outcome_subtype","latitude","longitude","outcome_is_dead","was_outcome_alive","geopoint","color","intake"
"1","A602172",NA,"cat","gray tabby",NA,"Female",2015-01-11,2018-01-11,"normal","stray","otc",NA,2018-01-17,"00 BLK REDONDO AVE, LONG BEACH, CA 90803","Long Beach","transfer","spcala",33.7610023,-118.1526611,FALSE,TRUE,"33.7610023, -118.1526611","grey","normal"
"2","A706435","lorelei","cat","brown  tabby",NA,"Spayed",2021-09-07,2023-09-07,"ill mild","stray","otc",NA,2023-12-10,"00 BLOCK E MARKET ST, LONG BEACH CA","Long Beach","adoption",NA,33.8542837,-118.1964921,FALSE,TRUE,"33.8542837, -118.1964921","other","mild"
"3","A721324","calvin","cat","gray","white","Neutered",2018-09-01,2024-05-26,"normal","owner surrender","otc",NA,2024-06-08,"00 BLOCK W 47TH ST, LONG BEACH CA","Long Beach","adoption","web",33.8430309,-118.192467,FALSE,TRUE,"33.8430309, -118.192467","grey","normal"
"4","A604330",NA,"cat","brown",NA,"Unknown",NA,2018-03-01,"ill severe","stray","field",NA,2018-03-01,"1 BLK E 53RD ST, LONG BEACH, CA 90805","Long Beach","euthanasia","ill severe",33.8523843,-118.195835,TRUE,FALSE,"33.8523843, -118.195835","brown","severe"
"5","A490165","bobette","cat","gray","white","Spayed",2010-03-06,2019-07-02,"normal","safe keep","owner died",NA,2019-07-10,"10 BLK 58TH PL, LONG BEACH, CA 90803","Long Beach","return to owner","walkin",33.7493316,-118.1252406,FALSE,TRUE,"33.7493316, -118.1252406","grey","normal"
"6","A587568",NA,"cat","black",NA,"Female",2014-03-25,2017-03-25,"ill mild","stray","otc",NA,2017-03-25,"10 BLK NIETO AVE, LONG BEACH, CA 90803","Long Beach","euthanasia","ill severe",33.7562364,-118.1377058,TRUE,FALSE,"33.7562364, -118.1377058","black","mild"
"7","A596942","*mr mittens","cat","black","white","Neutered",2014-09-12,2017-09-12,"feral","stray","field",NA,2018-01-24,"10 E 53RD ST, LONG BEACH, CA 90805","Long Beach","rescue","fndanifoun",33.8523859,-118.1955218,FALSE,TRUE,"33.8523859, -118.1955218","black","feral_fractious"
"8","A635097",NA,"cat","brown  tabby",NA,"Neutered",NA,2019-10-17,"ill moderatete","stray","field",NA,2019-10-18,"10 POMONA AVE, LONG BEACH, CA 90803","Long Beach","euthanasia","ill severe",33.7551064,-118.1345301,TRUE,FALSE,"33.7551064, -118.1345301","other","moderate"
"9","A638369","a638369","cat","white","gray","Neutered",2017-01-09,2020-01-09,"fractious","stray","field",NA,2020-01-14,"10 W PLESANT ST, LONG BEACH, CA 90805","Long Beach","shelter, neuter, return","straycatal",33.8460665,-118.1940513,FALSE,TRUE,"33.8460665, -118.1940513","white","feral_fractious"
"10","A593462","*plum","cat","black",NA,"Female",2017-04-13,2017-07-13,"normal","stray","otc",NA,2017-07-25,"100 ATLANTIC AVE, LONG BEACH, CA 90802","Long Beach","rescue","catpaws",33.7684106,-118.1846501,FALSE,TRUE,"33.7684106, -118.1846501","black","normal"
"11","A593461","*fig","cat","brown  tabby",NA,"Female",2017-04-13,2017-07-13,"normal","stray","otc",NA,2017-07-25,"100 ATLANTIC AVE, LONG BEACH, CA 90802","Long Beach","rescue","catpaws",33.7684106,-118.1846501,FALSE,TRUE,"33.7684106, -118.1846501","other","normal"
"12","A617524","pickle","cat","brown  tabby",NA,"Female",2016-11-14,2021-12-12,"normal","confiscate","owner died",NA,2021-12-14,"100 BLK 4TH ST, SEAL BEACH, CA 90740","Seal Beach","return to rescue","zazzycat",33.7420707,-118.1102942,FALSE,TRUE,"33.7420707, -118.1102942","other","normal"
"13","A647453",NA,"cat","white",NA,"Male",2020-05-22,2020-08-22,"normal","stray","otc",NA,2020-08-29,"100 BLK 68TH ST, LONG BEACH, CA 90805","Long Beach","transfer","spcala",33.8775178,-118.2025528,FALSE,TRUE,"33.8775178, -118.2025528","white","normal"
"14","A669321","oliver","cat","black",NA,"Male",2021-06-13,2022-01-13,"normal","welfare seized","hospital",NA,2022-01-29,"100 BLK ATLANTIC AVE, LONG BEACH, CA 90802","Long Beach","return to owner","phone",33.7684106,-118.1846501,FALSE,TRUE,"33.7684106, -118.1846501","black","normal"
"15","A699277","dixie","cat","gray","white","Spayed",2023-03-30,2023-05-24,"ill mild","stray","otc",NA,2023-05-27,"100 BLK BARCLAY ST LB 90805","Long Beach","adoption","web",33.8661015,-118.2027924,FALSE,TRUE,"33.8661015, -118.2027924","grey","mild"
"16","A633462","a633462*haygar","cat","gray","white","Male",2017-09-12,2019-09-12,"fractious","stray","otc",NA,2019-09-26,"100 BLK BONITO AVE, LONG BEACH, CA 90802","Long Beach","euthanasia","ill severe",33.7672385,-118.1807414,TRUE,FALSE,"33.7672385, -118.1807414","grey","feral_fractious"
"17","A627332","tawny","cat","tortie",NA,"Spayed",2014-05-30,2019-05-30,"normal","owner surrender","field",NA,2019-06-02,"100 BLK BONITO AVE, LONG BEACH, CA 90802","Long Beach","transfer","spcala",33.7672385,-118.1807414,FALSE,TRUE,"33.7672385, -118.1807414","multi","normal"
"18","A586176","*sally","cat","calico","black","Female",2016-10-23,2017-02-23,"normal","owner surrender","otc","too many",2017-02-23,"100 BLK CERRITOS AVE, LONG BEACH, CA 90802","Long Beach","transfer","spcala",33.7672612,-118.1786864,FALSE,TRUE,"33.7672612, -118.1786864","multi","normal"
"19","A632562",NA,"cat","black","white","Female",2018-08-25,2019-08-25,"ill moderatete","stray","field",NA,2019-08-26,"100 BLK E 31ST ST, LONG BEACH, CA 90807","Long Beach","euthanasia","at vet",33.8133641,-118.1924891,TRUE,FALSE,"33.8133641, -118.1924891","black","moderate"
"20","A644710","*french fry","cat","brown  tabby",NA,"Neutered",2020-01-02,2020-07-02,"normal","stray","otc",NA,2020-08-02,"100 BLK E 52ND ST, LONG BEACH, CA 90805","Long Beach","adoption","pfe/pawshp",33.8504744,-118.1936361,FALSE,TRUE,"33.8504744, -118.1936361","other","normal"
"21","A673113","*amelia","cat","black","white","Spayed",2021-11-14,2022-04-15,"normal","stray","otc",NA,2022-04-23,"100 BLK E 55TH ST, LONG BEACH, CA 90805","Long Beach","adoption","web",33.8557059,-118.1936188,FALSE,TRUE,"33.8557059, -118.1936188","black","normal"
"22","A635815","*lynx","cat","brown  tabby","white","Male",2019-09-06,2019-11-06,"normal","stray","otc",NA,2019-11-13,"100 BLK E 56TH ST, LONG BEACH, CA 90805","Long Beach","rescue","littlepaws",33.8575496,-118.1954039,FALSE,TRUE,"33.85754960000001, -118.1954039","other","normal"
"23","A607623","*deena","cat","white","black","Spayed",2016-05-15,2018-05-15,"normal","stray","field",NA,2018-06-12,"100 BLK E 60TH ST, LONG BEACH, CA 90805","Long Beach","shelter, neuter, return","straycatal",33.8641608,-118.1935283,FALSE,TRUE,"33.8641608, -118.1935283","white","normal"
"24","A719152","*bigfoot","cat","gray tabby","black","Neutered",2023-04-19,2024-04-18,"fractious","stray","otc",NA,2024-04-27,"100 BLK E 68TH STREET LONG BEACH CA 90805","Long Beach","community cat",NA,33.8775178,-118.2025528,FALSE,TRUE,"33.8775178, -118.2025528","grey","feral_fractious"
"25","A615807","*penny","cat","calico",NA,"Spayed",2015-10-06,2018-10-06,"normal","stray","otc",NA,2018-12-16,"100 BLK E 69TH ST, LONG BEACH, CA 90805","Long Beach","adoption","walkin",33.8793159,-118.2026829,FALSE,TRUE,"33.8793159, -118.2026829","multi","normal"
"26","A615811",NA,"cat","white",NA,"Female",2018-07-22,2018-10-06,"normal","stray","otc",NA,2018-10-06,"100 BLK E 69TH ST, LONG BEACH, CA 90805","Long Beach","euthanasia","ill modera",33.8793159,-118.2026829,TRUE,FALSE,"33.8793159, -118.2026829","white","normal"
"27","A601110","memphis","cat","brown  tabby",NA,"Neutered",2013-12-15,2017-12-15,"feral","stray","otc",NA,2017-12-28,"100 BLK E EAGLE ST, LONG BEACH, CA 90806","Long Beach","shelter, neuter, return","straycatal",33.7996711,-118.1923808,FALSE,TRUE,"33.7996711, -118.1923808","other","feral_fractious"
"28","A678876","*jellybean","cat","white","gray","Neutered",2022-04-05,2022-07-05,"ill mild","stray","field",NA,2022-08-25,"100 BLK E ELDRIDGE ST, LONG BEACH, CA 90807","Long Beach","adoption",NA,33.812501,-118.192098,FALSE,TRUE,"33.812501, -118.192098","white","mild"
"29","A646298",NA,"cat","orange tabby","white","Neutered",2019-11-26,2020-07-26,"normal","stray","field",NA,2020-07-26,"100 BLK E HULLETT ST, LONG BEACH, CA 90805","Long Beach","return to owner",NA,33.8628136,-118.1939022,FALSE,TRUE,"33.8628136, -118.1939022","orange","normal"
"30","A676941",NA,"cat","seal point",NA,"Unknown",2022-05-07,2022-06-07,"ill severe","stray","field",NA,2022-06-07,"100 BLK E LOUISE ST, LONG BEACH, CA 90805","Long Beach","died","enroute",33.8549875,-118.1934587,TRUE,FALSE,"33.8549875, -118.1934587","grey","severe"
"31","A633447",NA,"cat","orange","white","Male",2019-07-12,2019-09-12,"normal","stray","aban field",NA,2019-09-13,"100 BLK E MARKET ST, LONG BEACH, CA 90805","Long Beach","rescue","littlepaws",33.8540693,-118.1935615,FALSE,TRUE,"33.8540693, -118.1935615","orange","normal"
"32","A607876",NA,"cat","gray tabby",NA,"Female",2018-05-16,2018-05-19,"normal","stray","otc",NA,2018-08-11,"100 BLK E MARKET ST, LONG BEACH, CA 90805","Long Beach","rescue","catpaws",33.8540693,-118.1935615,FALSE,TRUE,"33.8540693, -118.1935615","grey","normal"
"33","A650200","*oogie","cat","black","white","Neutered",2020-06-16,2020-10-16,"normal","stray","field",NA,2020-11-05,"100 BLK E MARKET, LONG BEACH, CA 90806","Long Beach","adoption","web",33.8540693,-118.1935615,FALSE,TRUE,"33.8540693, -118.1935615","black","normal"
"34","A728575",NA,"cat","orange tabby","white","Male",2024-08-12,2024-09-12,"ill severe","stray","field",NA,2024-09-13,"100 BLK E NORTON ST, LB 90805","Long Beach","euthanasia","at vet",33.8584052,-118.1898668,TRUE,FALSE,"33.8584052, -118.1898668","orange","severe"
"35","A717689","kitten 2","cat","black tabby","white","Unknown",NA,2024-03-26,"normal","stray","field",NA,2024-03-28,"100 BLK E OSGOOD ST, LONG BEACH, CA 90805","Long Beach","rescue","littlelion",33.8634376,-118.1939327,FALSE,TRUE,"33.8634376, -118.1939327","black","normal"
"36","A593069","*aspen","cat","black",NA,"Female",2017-04-07,2017-07-07,"normal","stray","otc",NA,2017-07-20,"100 BLK E PLYMOUTH ST, LONG BEACH, CA 90805","Long Beach","adoption","spcala",33.8531119,-118.1935153,FALSE,TRUE,"33.8531119, -118.1935153","black","normal"
"37","A691580","halloween kitty","cat","black","white","Male",NA,2023-01-07,"normal","stray","otc",NA,2023-01-11,"100 BLK E. 52ND ST, LONG BEACH, CA 90805","Long Beach","return to owner","walkin",33.8504744,-118.1936361,FALSE,TRUE,"33.8504744, -118.1936361","black","normal"
"38","A647850","mama kitty","cat","gray","white","Spayed",2018-08-27,2020-08-27,"normal","stray","field",NA,2020-08-28,"100 BLK THE TOLEDO, LONG BEACH, CA 90803","Long Beach","return to owner","phone",33.7543452,-118.1235029,FALSE,TRUE,"33.7543452, -118.1235029","grey","normal"
"39","A721633","*amaretto","cat","orange tabby",NA,"Neutered",2019-05-27,2024-05-27,"ill moderatete","stray","field",NA,2024-06-14,"100 BLK W 20TH ST, LB 90806","Long Beach","community cat",NA,33.7934837,-118.1923744,FALSE,TRUE,"33.7934837, -118.1923744","orange","moderate"
"40","A700329","*geez","cat","brown  tabby",NA,"Male",2023-04-07,2023-06-07,"ill moderatete","stray","otc",NA,2023-06-08,"100 BLK W 52ND ST, LONG BEACH, CA 90805","Long Beach","died","at vet",33.8502533,-118.1981314,TRUE,FALSE,"33.8502533, -118.1981314","other","moderate"
"41","A728691","*paislee","cat","gray tabby","orange tabby","Spayed",2024-01-16,2024-09-16,"ill moderatete","stray","field",NA,2024-09-30,"100 BLK W ARBOR ST","Long Beach","community cat","commcat",33.8436238,-118.1968518,FALSE,TRUE,"33.8436238, -118.1968518","grey","moderate"
"42","A718143","douglas","cat","orange tabby",NA,"Male",2024-02-24,2024-04-05,"ill mild","stray","field",NA,2024-04-07,"100 BLK W LOUISE ST","Long Beach","rescue","littlelion",33.8548651,-118.1986475,FALSE,TRUE,"33.8548651, -118.1986475","orange","mild"
"43","A704062","*mickey","cat","black",NA,"Male",2023-07-03,2023-08-02,"normal","stray","otc",NA,2023-08-24,"100 BLOCK E 15TH ST, LONG BEACH CA","Long Beach","rescue","littlepaws",33.7853157,-118.1923888,FALSE,TRUE,"33.7853157, -118.1923888","black","normal"
"44","A704064","*my sharona","cat","black",NA,"Female",2023-07-03,2023-08-02,"normal","stray","otc",NA,2023-08-24,"100 BLOCK E 15TH ST, LONG BEACH CA","Long Beach","rescue","littlepaws",33.7853157,-118.1923888,FALSE,TRUE,"33.7853157, -118.1923888","black","normal"
"45","A704058",NA,"cat","black",NA,"Spayed",2022-08-02,2023-08-02,"normal","stray","otc",NA,2023-10-25,"100 BLOCK E 15TH ST, LONG BEACH CA","Long Beach","community cat","friendly",33.7853157,-118.1923888,FALSE,TRUE,"33.7853157, -118.1923888","black","normal"
"46","A695283","*ruby","cat","point",NA,"Female",2022-03-24,2023-03-24,"ill moderatete","stray","otc",NA,2023-03-24,"100 E 56TH ST LB CA 90805","Long Beach","rescue","littlelion",33.8575496,-118.1954039,FALSE,TRUE,"33.85754960000001, -118.1954039","grey","moderate"
"47","A672417",NA,"cat","calico",NA,"Unknown",2019-03-28,2022-03-28,"ill severe","stray","field",NA,2022-03-28,"100 E 67TH ST, LONG BEACH, CA 90805","Long Beach","missing","enroute",33.8759962,-118.2032146,FALSE,TRUE,"33.8759962, -118.2032146","multi","severe"
"48","A606743","*satin","cat","white",NA,"Male",2016-04-26,2018-04-26,"normal","stray","otc",NA,2018-05-03,"100 E ADAIR ST, LONG BEACH, CA 90805","Long Beach","transfer","spcala",33.8639455,-118.1925682,FALSE,TRUE,"33.8639455, -118.1925682","white","normal"
"49","A647366","*adam","cat","orange tabby",NA,"Neutered",2016-08-18,2021-02-22,"ill mild","stray","trap",NA,2021-02-25,"100 E ADAMS ST, LONG BEACH, CA 90805","Long Beach","euthanasia","ill severe",33.8695686,-118.2009737,TRUE,FALSE,"33.8695686, -118.2009737","orange","mild"
"50","A647365","a647365","cat","gray tabby","white","Spayed",2019-08-18,2020-08-18,"ill mild","stray","trap",NA,2020-09-10,"100 E ADAMS ST, LONG BEACH, CA 90805","Long Beach","shelter, neuter, return","straycatal",33.8695686,-118.2009737,FALSE,TRUE,"33.8695686, -118.2009737","grey","mild"
"51","A647363","a647363","cat","black",NA,"Spayed",2019-08-18,2020-08-18,"ill mild","stray","trap",NA,2020-09-05,"100 E ADAMS ST, LONG BEACH, CA 90805","Long Beach","shelter, neuter, return","straycatal",33.8695686,-118.2009737,FALSE,TRUE,"33.8695686, -118.2009737","black","mild"
"52","A617089","*cleo","cat","black","black","Female",2016-11-03,2018-11-03,"normal","stray","otc",NA,2018-12-30,"100 E ELDRIDGE ST, LONG BEACH, CA 90807","Long Beach","rescue","other resc",33.812501,-118.192098,FALSE,TRUE,"33.812501, -118.192098","black","normal"
"53","A587846",NA,"cat","black","white","Female",2014-03-31,2017-03-31,"normal","stray","otc",NA,2017-04-03,"100 E ELDRIDGE ST, LONG BEACH, CA 90807","Long Beach","transfer","spcala",33.812501,-118.192098,FALSE,TRUE,"33.812501, -118.192098","black","normal"
"54","A724679","*symphony","cat","gray","white","Spayed",2023-07-15,2024-07-14,"normal","stray","aban field",NA,2024-08-04,"100 E LOUSIE ST","Long Beach","rescue","kittybunga",33.8549898,-118.1934473,FALSE,TRUE,"33.8549898, -118.1934473","grey","normal"
"55","A615547",NA,"cat","brown  tabby",NA,"Unknown",2018-08-03,2018-10-03,"ill severe","stray","field",NA,2018-10-03,"100 E SUNSET ST, LONG BEACH, CA 90805","Long Beach","euthanasia","ill severe",33.8490603,-118.1934987,TRUE,FALSE,"33.8490603, -118.1934987","other","severe"
"56","A723520",NA,"cat","orange","white","Male",2024-03-27,2024-06-27,"ill moderatete","stray","field",NA,2024-06-27,"100 W ARBOR ST","Long Beach","euthanasia","ill severe",33.8436238,-118.1968518,TRUE,FALSE,"33.8436238, -118.1968518","orange","moderate"
"57","A585027","*rollo","cat","tortie",NA,"Spayed",2014-01-25,2017-01-25,"normal","stray","otc",NA,2017-02-01,"100 W BARCLAY ST, LONG BEACH, CA 90805","Long Beach","shelter, neuter, return","straycatal",33.8661015,-118.2027924,FALSE,TRUE,"33.8661015, -118.2027924","multi","normal"
"58","A650857",NA,"cat","brown  tabby",NA,"Unknown",2020-09-25,2020-11-04,"normal","stray","trap",NA,2020-11-04,"1000 BLK 1ST ST, LONG BEACH CA 90802","Long Beach","rescue","littlepaws",33.767028,-118.1805863,FALSE,TRUE,"33.767028, -118.1805863","other","normal"
"59","A684309","kitty ray","cat","brown","gray","Spayed",2014-09-18,2022-09-17,"normal","stray","otc",NA,2022-10-09,"1000 BLK ALAMITOS AVE, LONG BEACH, CA 90813","Long Beach","rescue","earlysrep",33.7789677,-118.17907,FALSE,TRUE,"33.7789677, -118.17907","brown","normal"
"60","A648159","greyson","cat","gray tiger",NA,"Neutered",2020-02-10,2020-06-10,"normal","stray","field",NA,2020-06-12,"1000 BLK ALAMITOS AVE, LONG BEACH, CA 90813","Long Beach","adoption","good sam",33.7789677,-118.17907,FALSE,TRUE,"33.7789677, -118.17907","grey","normal"
"61","A728415","*rawri","cat","orange tabby","white","Neutered",2024-06-11,2024-09-11,"ill moderatete","stray","otc",NA,2024-09-21,"1000 BLK ATLANTIC AVE, LB  90813","Long Beach","community cat","friendly",33.7789781,-118.1850513,FALSE,TRUE,"33.7789781, -118.1850513","orange","moderate"
"62","A721306","*kona","cat","black",NA,"Spayed",2024-03-20,2024-05-22,"normal","owner surrender","otc","cost",2024-06-08,"00 BLK E 68TH WAY LONG BEACH CA 90805","Long Beach","adoption","mobile app",33.8784962,-118.2039496,FALSE,TRUE,"33.8784962, -118.2039496","black","normal"
"63","A721307","*peppermint","cat","brown  tabby",NA,"Neutered",2024-03-20,2024-05-22,"normal","owner surrender","otc","cost",2024-05-24,"00 BLK E 68TH WAY LONG BEACH CA 90805","Long Beach","adoption","web",33.8784962,-118.2039496,FALSE,TRUE,"33.8784962, -118.2039496","other","normal"
"64","A707072",NA,"cat","black",NA,"Female",2023-08-04,2023-09-19,"ill moderatete","stray","field",NA,2023-09-20,"1000 BLK CEDAR AVE, LONG BEACH, CA 90813","Long Beach","euthanasia","ill mild",33.7789902,-118.1950695,TRUE,FALSE,"33.7789902, -118.1950695","black","moderate"
"65","A640529","bean","cat","gray tabby",NA,"Female",2019-02-28,2020-02-28,"normal","stray","otc",NA,2020-03-23,"00 BLK ESPERANZA AVE, LONG BEACH, CA 90802","Long Beach","rescue","littlelion",33.7656392,-118.1753959,FALSE,TRUE,"33.7656392, -118.1753959","grey","normal"
"66","A602802",NA,"cat","black","white","Unknown",2015-01-19,2018-01-19,"ill mild","stray","field",NA,2018-01-19,"00 BLK W 53RD ST, LONG BEACH, CA 90805","Long Beach","euthanasia","ill modera",33.8524273,-118.1959944,TRUE,FALSE,"33.8524273, -118.1959944","black","mild"
"67","A706437","*akita","cat","tortie",NA,"Female",2023-08-04,2023-09-07,"normal","stray","otc",NA,2023-10-23,"00 BLOCK E MARKET ST, LONG BEACH CA","Long Beach","rescue","littlelion",33.8542837,-118.1964921,FALSE,TRUE,"33.8542837, -118.1964921","multi","normal"
"68","A694972","*princess peach","cat","seal point",NA,"Female",2022-03-19,2023-03-19,"fractious","stray","otc",NA,2023-03-19,"1000 BLK E 12TH ST LB CA 90813","Long Beach","rescue","littlelion",33.781478,-118.1806515,FALSE,TRUE,"33.781478, -118.1806515","grey","feral_fractious"
"69","A604761",NA,"cat","silver tabby","white","Female",2015-03-12,2018-03-12,"normal","stray","otc",NA,2018-03-15,"1000 BLK E 15TH ST, LONG BEACH, CA 90813","Long Beach","transfer","spcala",33.7862224,-118.180078,FALSE,TRUE,"33.7862224, -118.180078","grey","normal"
"70","A607684","*dose","cat","black","white","Neutered",2016-05-16,2018-05-16,"fractious","stray","field",NA,2018-05-31,"1000 BLK E 16TH ST, LONG BEACH, CA 90813","Long Beach","shelter, neuter, return","straycatal",33.7868197,-118.1783397,FALSE,TRUE,"33.7868197, -118.1783397","black","feral_fractious"
"71","A650198","sonia","cat","black","white","Spayed",2015-10-16,2020-10-16,"normal","welfare seized","police",NA,2020-11-04,"10 65TH PL, LONG BEACH, CA 90803","Long Beach","adoption","web",33.7471067,-118.1212655,FALSE,TRUE,"33.7471067, -118.1212655","black","normal"
"72","A649244","*misty helen","cat","calico",NA,"Female",2005-09-22,2020-09-22,"ill mild","stray","field",NA,2021-02-11,"10 BLK W LOUISE ST, LONG BEACH, CA 90805","Long Beach","rescue","lbsnnres",33.8548773,-118.1971016,FALSE,TRUE,"33.8548773, -118.1971016","multi","mild"
"73","A597860",NA,"cat","brown","tan","Female",2004-09-27,2017-09-27,"normal","stray","field",NA,2017-10-01,"10 BLK W PLEASANT ST, LONG BEACH, CA 90805","Long Beach","euthanasia","ill severe",33.8460665,-118.1940513,TRUE,FALSE,"33.8460665, -118.1940513","brown","normal"
"74","A725549",NA,"cat","black",NA,"Male",2023-07-25,2024-07-25,"ill severe","stray","field",NA,2024-07-26,"10 BLK XIMENO AVE, LONG BEACH, CA 90803","Long Beach","euthanasia","ill severe",33.7584892,-118.1434117,TRUE,FALSE,"33.7584892, -118.1434117","black","severe"
"75","A613555","*olimar","cat","brown  tabby",NA,"Neutered",2014-08-24,2018-08-24,"fractious","stray","otc",NA,2018-09-07,"1000 BLK E 5TH ST, LONG BEACH, CA 90802","Long Beach","shelter, neuter, return","straycatal",33.7729834,-118.1796718,FALSE,TRUE,"33.7729834, -118.1796718","other","feral_fractious"
"76","A610273","*august","cat","brown  tabby",NA,"Neutered",2016-06-27,2018-06-27,"normal","stray","trap",NA,2018-07-11,"1000 BLK E 5TH ST, LONG BEACH, CA 90802","Long Beach","shelter, neuter, return","straycatal",33.7729834,-118.1796718,FALSE,TRUE,"33.7729834, -118.1796718","other","normal"
"77","A614293",NA,"cat","brown  tabby",NA,"Unknown",2018-02-08,2018-09-08,"normal","stray","trap",NA,2018-09-17,"1000 BLK E 5TH ST, LONG BEACH, CA 90802","Long Beach","euthanasia","ill severe",33.7729834,-118.1796718,TRUE,FALSE,"33.7729834, -118.1796718","other","normal"
"78","A612836","*alex","cat","black",NA,"Neutered",2013-08-15,2018-08-15,"normal","stray","trap",NA,2018-08-21,"1000 BLK E 5TH ST, LONG BEACH, CA 90802","Long Beach","shelter, neuter, return","straycatal",33.7729834,-118.1796718,FALSE,TRUE,"33.7729834, -118.1796718","black","normal"
"79","A625151","spirit","cat","tortie",NA,"Female",2017-04-23,2019-04-23,"ill severe","stray","field",NA,2019-05-05,"100 BLK ATLANTIC AVE, LONG BEACH, CA 90802","Long Beach","transfer","spcala",33.7684106,-118.1846501,FALSE,TRUE,"33.7684106, -118.1846501","multi","severe"
"80","A586175","*jesse","cat","calico","brown  tabby","Female",2016-10-23,2017-02-23,"normal","owner surrender","otc","too many",2017-02-23,"100 BLK CERRITOS AVE, LONG BEACH, CA 90802","Long Beach","transfer","spcala",33.7672612,-118.1786864,FALSE,TRUE,"33.7672612, -118.1786864","multi","normal"
"81","A613424",NA,"cat","gray","white","Male",2017-10-22,2018-08-22,"ill severe","stray","field",NA,2018-08-22,"1000 BLK E 70TH WAY, LONG BEACH, CA 90805","Long Beach","died","enroute",33.8825758,-118.1808452,TRUE,FALSE,"33.8825758, -118.1808452","grey","severe"
"82","A586181","luke","cat","lilac lynx point","tan","Male",2015-02-23,2017-02-23,"normal","owner surrender","otc","too many",2017-02-23,"100 BLK CERRITOS AVE, LONG BEACH, CA 90802","Long Beach","transfer","spcala",33.7672612,-118.1786864,FALSE,TRUE,"33.7672612, -118.1786864","grey","normal"
"83","A586197","oscar","cat","orange tabby",NA,"Male",2013-02-23,2017-02-23,"normal","owner surrender","otc","too many",2017-02-24,"100 BLK CERRITOS AVE, LONG BEACH, CA 90802","Long Beach","transfer","spcala",33.7672612,-118.1786864,FALSE,TRUE,"33.7672612, -118.1786864","orange","normal"
"84","A586202","toby","cat","snowshoe",NA,"Neutered",2015-02-23,2017-02-23,"normal","owner surrender","otc","too many",2017-04-21,"100 BLK CERRITOS AVE, LONG BEACH, CA 90802","Long Beach","adoption","pfe/pawshp",33.7672612,-118.1786864,FALSE,TRUE,"33.7672612, -118.1786864","multi","normal"
"85","A677448","*datsun","cat","black tabby",NA,"Neutered",2019-06-12,2022-06-12,"ill mild","stray","otc",NA,2022-06-23,"1000 BLK E 7TH ST, LONG BEACH, CA 90813","Long Beach","community cat","friendly",33.7751351,-118.1799603,FALSE,TRUE,"33.7751351, -118.1799603","black","mild"
"86","A732434","*star","cat","gray tabby",NA,"Spayed",2024-08-13,2024-11-13,"ill mild","stray","otc",NA,2024-12-13,"1000 BLK E 7TH STREET LONG BEACH CA 90813","Long Beach","adoption","web",33.7751351,-118.1799603,FALSE,TRUE,"33.7751351, -118.1799603","grey","mild"
"87","A598295","*mayflower","cat","black",NA,"Spayed",2016-10-05,2017-10-05,"normal","stray","field",NA,2017-11-15,"1000 BLK E BROADWAY, LONG BEACH, CA 90802","Long Beach","transfer","spcala",33.7687786,-118.1802839,FALSE,TRUE,"33.7687786, -118.1802839","black","normal"
"88","A714792","*moe","cat","blonde","white","Neutered",2023-12-26,2024-02-10,"normal","stray","otc",NA,2024-02-10,"1000 BLK E CHANDA CT LONG BEACH CA 90813","Long Beach","rescue","capaws",33.7762165,-118.1798936,FALSE,TRUE,"33.7762165, -118.1798936","yellow","normal"
"89","A714986","*wonna","cat","brown  tabby","black","Spayed",2023-06-22,2024-02-14,"normal","owner surrender","otc","move",2024-02-28,"1000 BLK E FREELAND STREET LONG BEACH CA 90807","Long Beach","adoption","web",33.8397387,-118.1817508,FALSE,TRUE,"33.8397387, -118.1817508","other","normal"
"90","A702967","*suri","cat","black","white","Female",2023-06-29,2023-07-15,"ill mild","stray","otc",NA,2023-07-15,"1000 BLK E HILL STREET LONG BEACH CA 90806","Long Beach","euthanasia","ill severe",33.7969425,-118.1804227,TRUE,FALSE,"33.7969425, -118.1804227","black","mild"
"91","A683267","kitty","cat","calico",NA,"Spayed",2022-03-17,2022-09-07,"normal","owner surrender","otc","too many",2022-10-01,"100 BLK E 52ND ST, LONG BEACH, CA 90805","Long Beach","adoption","web",33.8504744,-118.1936361,FALSE,TRUE,"33.8504744, -118.1936361","multi","normal"
"92","A644713",NA,"cat","silver lynx point",NA,"Spayed",2020-03-02,2020-07-02,"normal","stray","otc",NA,2020-07-09,"100 BLK E 52ND ST, LONG BEACH, CA 90805","Long Beach","rescue","catpaws",33.8504744,-118.1936361,FALSE,TRUE,"33.8504744, -118.1936361","grey","normal"
"93","A690415","suki/felina","cat","calico",NA,"Spayed",2022-04-28,2022-08-17,"normal","owner surrender","otc","owner prob",2022-08-28,"100 BLK E 52ND ST, LONG BEACH, CA 90805","Long Beach","adoption",NA,33.8504744,-118.1936361,FALSE,TRUE,"33.8504744, -118.1936361","multi","normal"
"94","A644712",NA,"cat","lynx point",NA,"Spayed",2020-03-02,2020-07-02,"normal","stray","otc",NA,2020-07-09,"100 BLK E 52ND ST, LONG BEACH, CA 90805","Long Beach","rescue","catpaws",33.8504744,-118.1936361,FALSE,TRUE,"33.8504744, -118.1936361","grey","normal"
"95","A643145","*pancakes","cat","black","white","Spayed",2020-03-27,2020-08-14,"normal","return","adoption","nofriendly",2020-09-09,"1000 BLK E OCEAN BLVD, LONG BEACH, CA 90802","Long Beach","rescue","lbsnnres",33.7657333,-118.1808587,FALSE,TRUE,"33.7657333, -118.1808587","black","normal"
"96","A672802","found","cat","orange",NA,"Female",2022-03-08,2022-04-08,"ill severe","stray","otc",NA,2022-04-08,"100 BLK E 57TH ST, LONG BEACH, CA 90805","Long Beach","euthanasia","ill severe",33.8581828,-118.1953974,TRUE,FALSE,"33.8581828, -118.1953974","orange","severe"
"97","A650369","*taz","cat","brown  tabby",NA,"Neutered",2020-07-21,2020-10-21,"normal","stray","otc",NA,2020-10-30,"100 BLK E 59TH ST, LONG BEACH, CA 90805","Long Beach","adoption","web",33.8627431,-118.1943384,FALSE,TRUE,"33.8627431, -118.1943384","other","normal"
"98","A606851","rhythm","cat","black","white","Spayed",2017-03-14,2018-04-28,"normal","stray","otc",NA,2018-05-03,"1000 BLK E PACIFIC COAST HWY, LONG BEACH, CA 90806","Long Beach","return to owner","microchip",33.7898585,-118.1806444,FALSE,TRUE,"33.7898585, -118.1806444","black","normal"
"99","A677105","*sandy","cat","gray",NA,"Female",2022-05-09,2022-06-09,"ill mild","stray","otc",NA,2022-06-12,"1000 BLK E PACIFIC COAST HWY, LONG BEACH, CA 90806","Long Beach","rescue","catpaws",33.7898585,-118.1806444,FALSE,TRUE,"33.7898585, -118.1806444","grey","mild"
"100","A703496","*precious","cat","white","orange","Female",2023-06-25,2023-07-25,"ill moderatete","stray","field",NA,2023-08-03,"1000 BLK E SALT LAKE ST","Long Beach","rescue","littlepaws",33.7962103,-118.1806361,FALSE,TRUE,"33.7962103, -118.1806361","white","moderate"
"101","A605197","hashbrown","cat","white","orange","Spayed",2016-03-23,2018-03-23,"normal","owner surrender","otc","landlord",2018-04-18,"1000 BLK E SAN ANTONIO DR, LONG BEACH, CA 90807","Long Beach","rescue","catcove",33.8385989,-118.181333,FALSE,TRUE,"33.8385989, -118.181333","white","normal"
"102","A615810",NA,"cat","orange tabby",NA,"Male",2018-07-22,2018-10-06,"normal","stray","otc",NA,2018-10-06,"100 BLK E 69TH ST, LONG BEACH, CA 90805","Long Beach","euthanasia","ill modera",33.8793159,-118.2026829,TRUE,FALSE,"33.8793159, -118.2026829","orange","normal"
"103","A649083","*bobby","cat","gray","white","Male",2019-09-17,2020-09-17,"normal","owner surrender","otc","owner prob",2020-09-19,"100 BLK E ADAIR ST, LONG BEACH, CA 90805","Long Beach","transfer","spcala",33.8639455,-118.1925682,FALSE,TRUE,"33.8639455, -118.1925682","grey","normal"
"104","A668590","pancake","cat","white","orange","Neutered",2019-12-29,2021-12-29,"normal","stray","otc",NA,2022-01-08,"100 BLK E ARBOR ST, LONG BEACH, CA 90805","Long Beach","transfer","spcala",33.8435268,-118.1926551,FALSE,TRUE,"33.8435268, -118.1926551","white","normal"
"105","A658956","*mason","cat","gray","white","Neutered",2021-04-29,2021-06-17,"ill severe","stray","field",NA,2021-07-14,"100 BLK E ARTESIA BLVD, LONG BEACH, CA 90805","Long Beach","adoption","web",33.8742238,-118.2026551,FALSE,TRUE,"33.8742238, -118.2026551","grey","severe"
"106","A603504","*toby","cat","brown  tabby","white","Spayed",2017-06-07,2018-02-07,"fractious","stray","field",NA,2018-03-20,"100 BLK E ARTESIA BLVD, LONG BEACH, CA 90805","Long Beach","shelter, neuter, return","straycatal",33.8742238,-118.2026551,FALSE,TRUE,"33.8742238, -118.2026551","other","feral_fractious"
"107","A652545",NA,"cat","brown  tabby","white","Unknown",2015-12-23,2020-12-23,"ill severe","stray","field",NA,2020-12-23,"1000 BLK GARDENIA AVE, LONG BEACH, CA 90813","Long Beach","euthanasia","at vet",33.77899,-118.1687261,TRUE,FALSE,"33.77899, -118.1687261","other","severe"
"108","A603546","*cornchip","cat","orange","white","Neutered",2017-08-08,2018-02-08,"fractious","stray","trap",NA,2018-02-22,"100 BLK E ARTESIA BLVD, LONG BEACH, CA 90805","Long Beach","shelter, neuter, return","straycatal",33.8742238,-118.2026551,FALSE,TRUE,"33.8742238, -118.2026551","orange","feral_fractious"
"109","A626666",NA,"cat","white","black","Spayed",2017-05-19,2019-05-19,"fractious","stray","otc",NA,2019-06-04,"1000 BLK GAVIOTA AVE, LONG BEACH, CA 90703","Long Beach","shelter, neuter, return","straycatal",33.7789752,-118.1709214,FALSE,TRUE,"33.7789752, -118.1709214","white","feral_fractious"
"110","A603584","*ravioli","cat","brown  tabby",NA,"Neutered",2014-02-09,2018-02-09,"fractious","stray","trap",NA,2018-03-23,"100 BLK E ARTESIA BLVD, LONG BEACH, CA 90805","Long Beach","euthanasia","ill modera",33.8742238,-118.2026551,TRUE,FALSE,"33.8742238, -118.2026551","other","feral_fractious"
"111","A603467","*snausages","cat","brown  tabby","white","Spayed",2015-02-06,2018-02-06,"fractious","stray","field",NA,2018-02-22,"100 BLK E ARTESIA BLVD, LONG BEACH, CA 90805","Long Beach","shelter, neuter, return","straycatal",33.8742238,-118.2026551,FALSE,TRUE,"33.8742238, -118.2026551","other","feral_fractious"
"112","A681370","fernando","cat","cream","brown","Male",2022-06-03,2022-08-03,"normal","stray","otc",NA,2022-08-05,"100 BLK E BROADWAY, LONG BEACH, CA 90802","Long Beach","return to owner","walkin",33.7692949,-118.1923932,FALSE,TRUE,"33.7692949, -118.1923932","tan","normal"
"113","A619393","luna","cat","black","white","Female",2017-12-28,2018-12-28,"normal","owner surrender","otc","move",2018-12-29,"100 BLK E CANTON ST, LONG BEACH, CA 90806","Long Beach","transfer","spcala",33.8107849,-118.191319,FALSE,TRUE,"33.8107849, -118.191319","black","normal"
"114","A578255","*deven","cat","brown  tabby",NA,"Neutered",2013-09-04,2022-06-07,"ill moderatete","stray","field",NA,2022-06-07,"100 BLK E ELDRIDGE ST, LONG BEACH, CA 90807","Long Beach","euthanasia","at vet",33.812501,-118.192098,TRUE,FALSE,"33.812501, -118.192098","other","moderate"
"115","A683962","poe","cat","black",NA,"Spayed",2022-05-14,2022-09-14,"normal","stray","otc",NA,2022-09-25,"100 BLK E ELLIS ST, LONG BEACH, CA 90805","Long Beach","adoption","petsup+",33.8566144,-118.1952897,FALSE,TRUE,"33.8566144, -118.1952897","black","normal"
"116","A649444","*annie lynn","cat","black","white","Female",2017-09-28,2020-09-28,"ill moderatete","stray","field",NA,2020-10-12,"1000 BLK LEWIS AVE, LONG BEACH, CA 90813","Long Beach","rescue","littlelion",33.7789754,-118.1795513,FALSE,TRUE,"33.7789754, -118.1795513","black","moderate"
"117","A606443","*moonbeam","cat","black",NA,"Spayed",2017-09-20,2018-04-20,"normal","stray","otc",NA,2018-06-01,"100 BLK E ELLIS ST, LONG BEACH, CA 90805","Long Beach","adoption","spcala",33.8566144,-118.1952897,FALSE,TRUE,"33.8566144, -118.1952897","black","normal"
"118","A640971","*a640971","cat","black",NA,"Neutered",2019-03-11,2020-03-11,"normal","stray","otc",NA,2020-03-19,"100 BLK E ELLIS ST, LONG BEACH, CA 90805","Long Beach","shelter, neuter, return","straycatal",33.8566144,-118.1952897,FALSE,TRUE,"33.8566144, -118.1952897","black","normal"
"119","A673531","*benjamin","cat","chocolate point",NA,"Neutered",2018-04-25,2022-04-24,"ill severe","stray","field",NA,2022-08-07,"100 BLK E GORDON ST, LONG BEACH, CA 90805","Long Beach","adoption","web",33.8649109,-118.1998867,FALSE,TRUE,"33.8649109, -118.1998867","brown","severe"
"120","A728593","*raven","cat","black",NA,"Male",2024-08-13,2024-09-13,"ill moderatete","stray","field",NA,2024-09-14,"100 BLK E HILL ST, LONG BEACH, CA 90806","Long Beach","rescue","littlelion",33.7971283,-118.1925701,FALSE,TRUE,"33.7971283, -118.1925701","black","moderate"
"121","A682243","bella","cat","black","white","Spayed",2013-02-01,2022-08-19,"normal","owner surrender","otc","allergic",2022-08-27,"1000 BLK LIME AVE, LONG BEACH, CA 90813","Long Beach","adoption","walkin",33.7789839,-118.183959,FALSE,TRUE,"33.7789839, -118.183959","black","normal"
"122","A630039",NA,"cat","gray tabby","white","Female",2019-05-17,2019-07-17,"normal","stray","otc",NA,2019-07-19,"1000 BLK LIME AVE, LONG BEACH, CA 90813","Long Beach","transfer","spcala",33.7789839,-118.183959,FALSE,TRUE,"33.7789839, -118.183959","grey","normal"
"123","A726159","*cupid","cat","snowshoe","white","Spayed",2023-08-10,2024-08-02,"normal","stray","aban field",NA,2024-08-24,"100 BLK E MARKET ST","Long Beach","adoption","web",33.8540501,-118.1935729,FALSE,TRUE,"33.85405009999999, -118.1935729","multi","normal"
"124","A607875","*star","cat","black",NA,"Female",2018-05-16,2018-05-19,"normal","stray","otc",NA,2018-08-31,"100 BLK E MARKET ST, LONG BEACH, CA 90805","Long Beach","rescue","fndanifoun",33.8540693,-118.1935615,FALSE,TRUE,"33.8540693, -118.1935615","black","normal"
"125","A607877","*ringo","cat","black","white","Male",2018-05-16,2018-05-19,"normal","stray","otc",NA,2018-08-31,"100 BLK E MARKET ST, LONG BEACH, CA 90805","Long Beach","rescue","fndanifoun",33.8540693,-118.1935615,FALSE,TRUE,"33.8540693, -118.1935615","black","normal"
"126","A607878",NA,"cat","gray tabby",NA,"Female",2018-05-16,2018-05-19,"normal","stray","otc",NA,2018-08-11,"100 BLK E MARKET ST, LONG BEACH, CA 90805","Long Beach","rescue","catpaws",33.8540693,-118.1935615,FALSE,TRUE,"33.8540693, -118.1935615","grey","normal"
"127","A585497",NA,"cat","black",NA,"Male",2016-10-07,2017-02-07,"normal","stray","field",NA,2017-02-11,"100 BLK E MARKET ST, LONG BEACH, CA 90805","Long Beach","return to owner","walkin",33.8540693,-118.1935615,FALSE,TRUE,"33.8540693, -118.1935615","black","normal"
"128","A650199","*boogie","cat","orange","white","Neutered",2020-06-16,2020-10-16,"normal","stray","field",NA,2020-11-04,"100 BLK E MARKET, LONG BEACH, CA 90806","Long Beach","adoption","web",33.8540693,-118.1935615,FALSE,TRUE,"33.8540693, -118.1935615","orange","normal"
"129","A728574",NA,"cat","brown  tabby","white","Male",2024-08-12,2024-09-12,"ill severe","stray","field",NA,2024-09-12,"100 BLK E NORTON ST, LB 90805","Long Beach","euthanasia","at vet",33.8584052,-118.1898668,TRUE,FALSE,"33.8584052, -118.1898668","other","severe"
"130","A587498","*slugsworth","cat","black",NA,"Neutered",2012-03-24,2017-03-24,"ill severe","stray","field",NA,2017-07-05,"1000 BLK MAINE AVE, LONG BEACH, CA 90813","Long Beach","adoption","pfe/pawshp",33.7789934,-118.2006268,FALSE,TRUE,"33.7789934, -118.2006268","black","severe"
"131","A649821","*winter","cat","tricolor","white","Spayed",2019-10-08,2020-10-08,"normal","stray","otc",NA,2020-10-23,"1000 BLK MARTIN LUTHER KING JR AVE, LONG BEACH, CA 90813","Long Beach","adoption","spec evt",33.778863,-118.1805306,FALSE,TRUE,"33.778863, -118.1805306","multi","normal"
"132","A730230","*curb","cat","black",NA,"Neutered",2024-04-16,2024-10-16,"ill severe","stray","field",NA,2024-11-01,"1000 BLK MARTIN LUTHER KING JR AVE, LONG BEACH, CA 90813","Long Beach","community cat","friendly",33.778863,-118.1805306,FALSE,TRUE,"33.778863, -118.1805306","black","severe"
"133","A607327",NA,"cat","brown  tabby",NA,"Unknown",2016-05-08,2018-05-08,"ill severe","stray","field",NA,2018-05-08,"1000 BLK MARTIN LUTHER KING JR, LONG BEACH, CA 90813","Long Beach","euthanasia","at vet",33.778863,-118.1805306,TRUE,FALSE,"33.778863, -118.1805306","other","severe"
"134","A631126","*tinsel","cat","gray tabby","black","Spayed",2019-07-27,2019-08-02,"normal","stray","otc",NA,2019-12-15,"1000 BLK MYRTLE AVE, LONG BEACH, CA 90813","Long Beach","adoption","spec evt",33.7789718,-118.1817845,FALSE,TRUE,"33.7789718, -118.1817845","grey","normal"
"135","A627943",NA,"cat","gray","white","Male",2019-05-08,2019-06-08,"normal","stray","otc",NA,2019-06-12,"1000 BLK MYRTLE AVE, LONG BEACH, CA 90813","Long Beach","transfer","spcala",33.7789718,-118.1817845,FALSE,TRUE,"33.7789718, -118.1817845","grey","normal"
"136","A627942",NA,"cat","tortie dilute","gray","Female",2019-05-08,2019-06-08,"normal","stray","otc",NA,2019-06-12,"1000 BLK MYRTLE AVE, LONG BEACH, CA 90813","Long Beach","transfer","spcala",33.7789718,-118.1817845,FALSE,TRUE,"33.7789718, -118.1817845","multi","normal"
"137","A631130","*dancer","cat","brown  tabby",NA,"Neutered",2019-07-27,2019-08-02,"normal","stray","otc",NA,2019-12-26,"1000 BLK MYRTLE AVE, LONG BEACH, CA 90813","Long Beach","transport","other shel",33.7789718,-118.1817845,FALSE,TRUE,"33.7789718, -118.1817845","other","normal"
"138","A680979","tazmania","cat","brown  tabby",NA,"Spayed",2022-05-27,2022-07-27,"normal","stray","field",NA,2022-07-31,"1000 BLK N ALMOND CT, LONG BEACH, CA 90813","Long Beach","adoption",NA,33.7789711,-118.1751043,FALSE,TRUE,"33.7789711, -118.1751043","other","normal"
"139","A707665",NA,"cat","brown  tabby",NA,"Unknown",2023-06-27,2023-09-27,"ill severe","stray","field",NA,2023-09-27,"1000 BLK N ALMOND CT, LONG BEACH, CA 90813","Long Beach","euthanasia","ill severe",33.7789711,-118.1751043,TRUE,FALSE,"33.7789711, -118.1751043","other","severe"
"140","A610304",NA,"cat","black",NA,"Female",2016-06-27,2018-06-27,"ill severe","stray","otc",NA,2018-06-27,"1000 BLK N ALMOND CT, LONG BEACH, CA 90813","Long Beach","euthanasia","ill severe",33.7789711,-118.1751043,TRUE,FALSE,"33.7789711, -118.1751043","black","severe"
"141","A676352","*prince humperdink","cat","black",NA,"Male",2022-05-02,2022-06-02,"ill moderatete","stray","field",NA,2022-06-05,"1000 BLK N ALMOND CT, LONG BEACH, CA 90813","Long Beach","rescue","catpaws",33.7789711,-118.1751043,FALSE,TRUE,"33.7789711, -118.1751043","black","moderate"
"142","A666801",NA,"cat","black","white","Neutered",2013-11-14,2021-11-14,"normal","stray","otc",NA,2021-11-28,"1000 BLK N MINERVA PARK, LONG BEACH, CA 90813","Long Beach","community cat",NA,33.7795796,-118.1699714,FALSE,TRUE,"33.7795796, -118.1699714","black","normal"
"143","A691696","*biscuit","cat","tortie",NA,"Female",2022-09-11,2023-01-11,"normal","owner surrender","otc","owner prob",2023-01-12,"100 BLK E. 52ND ST, LONG BEACH, CA 90805","Long Beach","transfer","spcala",33.8504744,-118.1936361,FALSE,TRUE,"33.8504744, -118.1936361","multi","normal"
"144","A658688",NA,"cat","gray tabby",NA,"Male",2017-06-10,2021-06-10,"ill severe","stray","field",NA,2021-06-11,"1000 BLK NEWPORT AVE, LONG BEACH, CA 90804","Long Beach","euthanasia",NA,33.7789663,-118.1513203,TRUE,FALSE,"33.7789663, -118.1513203","grey","severe"
"145","A596421","cuko","cat","black",NA,"Male",2016-12-02,2017-09-02,"normal","owner surrender","otc","owner prob",2017-09-22,"1000 BLK OBISPO AVE, LONG BEACH, CA 90804","Long Beach","rescue","catcove",33.778969,-118.1545877,FALSE,TRUE,"33.778969, -118.1545877","black","normal"
"146","A591279","pinga","cat","gray",NA,"Female",2001-06-03,2017-06-03,"normal","owner surrender","otc","ill",2017-06-26,"1000 BLK OLIVE AVE, LONG BEACH, CA 90813","Long Beach","euthanasia","ill severe",33.7789912,-118.1828784,TRUE,FALSE,"33.7789912, -118.1828784","grey","normal"
"147","A724663","* stanky","cat","black","white","Male",2024-06-29,2024-07-14,"ill severe","stray","otc",NA,2024-07-14,"100 BLK LINDEN AVE, LB","Long Beach","euthanasia","ill severe",33.7683347,-118.1860924,TRUE,FALSE,"33.7683347, -118.1860924","black","severe"
"148","A607456",NA,"cat","calico",NA,"Female",2018-03-27,2018-05-11,"normal","stray","field",NA,2018-05-13,"1000 BLK ORANGE AVE, LONG BEACH, CA 90813","Long Beach","rescue","catpaws",33.7791565,-118.1760129,FALSE,TRUE,"33.7791565, -118.1760129","multi","normal"
"149","A612433","cat 4","cat","yellow",NA,"Spayed",2017-02-05,2018-08-05,"normal","owner surrender","otc",NA,2018-09-07,"1000 BLK ORANGE AVE, LONG BEACH, CA 90813","Long Beach","euthanasia","beh modera",33.7791565,-118.1760129,TRUE,FALSE,"33.7791565, -118.1760129","yellow","normal"
"150","A665918","yoshi","cat","orange",NA,"Neutered",2021-08-30,2021-10-28,"normal","welfare seized","hospital",NA,2021-12-04,"1000 BLK PACIFIC AVE, LONG BEACH, CA 90813","Long Beach","rescue","littlepaws",33.7789911,-118.1934664,FALSE,TRUE,"33.7789911, -118.1934664","orange","normal"
"151","A665921","zinda","cat","black",NA,"Male",2009-10-28,2021-10-28,"normal","welfare seized","hospital",NA,2021-11-11,"1000 BLK PACIFIC AVE, LONG BEACH, CA 90813","Long Beach","return to owner","walkin",33.7789911,-118.1934664,FALSE,TRUE,"33.7789911, -118.1934664","black","normal"
"152","A665920","blue","cat","gray tabby",NA,"Female",2021-09-28,2021-10-28,"normal","welfare seized","hospital",NA,2021-11-11,"1000 BLK PACIFIC AVE, LONG BEACH, CA 90813","Long Beach","return to owner","walkin",33.7789911,-118.1934664,FALSE,TRUE,"33.7789911, -118.1934664","grey","normal"
"153","A665926","*jordan","cat","black",NA,"Neutered",2012-11-12,2021-10-28,"normal","welfare seized","hospital",NA,2022-01-09,"1000 BLK PACIFIC AVE, LONG BEACH, CA 90813","Long Beach","adoption","web",33.7789911,-118.1934664,FALSE,TRUE,"33.7789911, -118.1934664","black","normal"
"154","A665927","itty-bitty","cat","black",NA,"Male",2021-02-28,2021-10-28,"normal","welfare seized","hospital",NA,2021-11-11,"1000 BLK PACIFIC AVE, LONG BEACH, CA 90813","Long Beach","return to owner","walkin",33.7789911,-118.1934664,FALSE,TRUE,"33.7789911, -118.1934664","black","normal"
"155","A730319","sadie","cat","white","gray tabby","Spayed",2019-10-18,2024-10-23,"ill moderatete","return","adoption","ill",2024-10-24,"100 BLK N LORETTA WALK LONG BEACH CA 90803","Long Beach","euthanasia","at vet",33.7552593,-118.1216093,TRUE,FALSE,"33.7552593, -118.1216093","white","moderate"
"156","A682794","sam","cat","orange tabby","white","Neutered",2017-09-07,2022-08-31,"normal","owner surrender","otc","landlord",2023-01-05,"1000 BLK PACIFIC AVE, LONG BEACH, CA 90813","Long Beach","adoption","web",33.7789911,-118.1934664,FALSE,TRUE,"33.7789911, -118.1934664","orange","normal"
"157","A636792","wilson","cat","gray tabby",NA,"Female",2019-03-27,2019-11-27,"normal","owner surrender","otc",NA,2019-12-27,"1000 BLK PARK AVE, LONG BEACH, CA 90804","Long Beach","rescue","littlepaws",33.7789644,-118.1397564,FALSE,TRUE,"33.7789644, -118.1397564","grey","normal"
"158","A626040","jack black","cat","black",NA,"Neutered",2011-05-08,2019-05-08,"normal","owner surrender","otc","owner prob",2019-06-23,"100 BLK PARK AVE, LONG BEACH, CA 90803","Long Beach","adoption","social med",33.7586182,-118.1398911,FALSE,TRUE,"33.7586182, -118.1398911","black","normal"
"159","A644675","a644675","cat","black","white","Spayed",2019-07-01,2020-07-01,"fractious","stray","field",NA,2020-07-31,"100 BLK PIER S AVE, LONG BEACH, CA 90802","Long Beach","rescue","kittybunga",33.7583325,-118.2403305,FALSE,TRUE,"33.7583325, -118.2403305","black","feral_fractious"
"160","A728636","*mlem","cat","brown  tabby","white","Neutered",2024-07-21,2024-09-14,"ill mild","stray","otc",NA,2024-10-09,"1000 BLK SALT LAKE ST, LONG BEACH 90806","Long Beach","adoption","web",33.7962144,-118.180675,FALSE,TRUE,"33.7962144, -118.180675","other","mild"
"161","A644676","*velvet","cat","black",NA,"Female",2020-05-01,2020-07-01,"normal","stray","field",NA,2020-07-24,"100 BLK PIER S AVE, LONG BEACH, CA 90802","Long Beach","rescue","catpaws",33.7583325,-118.2403305,FALSE,TRUE,"33.7583325, -118.2403305","black","normal"
"162","A645261","*zepplin","cat","black",NA,"Male",2020-05-09,2020-07-09,"fractious","stray","field",NA,2020-07-24,"100 BLK PIER S AVE, LONG BEACH, CA 90802","Long Beach","rescue","catpaws",33.7583325,-118.2403305,FALSE,TRUE,"33.7583325, -118.2403305","black","feral_fractious"
"163","A725558","*bro","cat","gray",NA,"Neutered",2015-07-25,2024-07-25,"ill moderatete","stray","otc",NA,2024-08-12,"100 BLK ROYCROFT AVE LONG BEACH CA 90803","Long Beach","community cat","commcat",33.7589323,-118.1403147,FALSE,TRUE,"33.7589323, -118.1403147","grey","moderate"
"164","A592564","mango","cat","orange tabby","white","Neutered",2017-03-28,2018-10-04,"fractious","owner surrender","otc","allergic",2019-01-03,"100 BLK STANFORD LN, SEAL BEACH, CA 90740","Seal Beach","adoption","pfe/pawshp",33.775837,-118.093595,FALSE,TRUE,"33.775837, -118.093595","orange","feral_fractious"
"165","A610014",NA,"cat","orange tabby","white","Male",2018-01-21,2018-06-21,"normal","stray","otc",NA,2018-06-24,"1000 BLK WALNUT AVE, LONG BEACH, CA 90813","Long Beach","transfer","spcala",33.7791395,-118.1718077,FALSE,TRUE,"33.7791395, -118.1718077","orange","normal"
"166","A650574","*maple tree","cat","brown  tabby",NA,"Male",2020-09-23,2020-10-31,"normal","stray","otc",NA,2020-11-06,"1000 BLK WALNUT AVE, LONG BEACH, CA 90813","Long Beach","adoption",NA,33.7791395,-118.1718077,FALSE,TRUE,"33.7791395, -118.1718077","other","normal"
"167","A711839","*cleo","cat","gray",NA,"Spayed",2022-12-13,2023-12-13,"ill severe","stray","otc",NA,2023-12-28,"1000 BLOCK E BURNETT ST, SIGNAL HILL, CA","Signal Hill","adoption","web",33.8006285,-118.1801759,FALSE,TRUE,"33.8006285, -118.1801759","grey","severe"
"168","A726525","*homelander","cat","black",NA,"Female",2024-05-09,2024-08-09,"ill severe","stray","otc",NA,2024-08-10,"1000 BLOCK MLK JR AVE, LONG BEACH CA","Long Beach","euthanasia","ill severe",33.778863,-118.1805306,TRUE,FALSE,"33.778863, -118.1805306","black","severe"
"169","A628283","*mr. sam","cat","black",NA,"Neutered",2019-05-14,2019-06-14,"normal","stray","otc",NA,2019-08-14,"1000 CEDAR AVE, LONG BEACH, CA 90813","Long Beach","transfer","spcala",33.7789902,-118.1950695,FALSE,TRUE,"33.7789902, -118.1950695","black","normal"
"170","A628503",NA,"cat","brown  tabby",NA,"Male",2019-06-02,2019-06-19,"normal","stray","otc",NA,2019-08-03,"1000 CORONADO AVE, LONG BEACH, CA 90804","Long Beach","transfer","spcala",33.7789862,-118.1534984,FALSE,TRUE,"33.7789862, -118.1534984","other","normal"
"171","A628496","a628496*stacia","cat","brown  tabby",NA,"Spayed",2018-06-19,2019-06-19,"fractious","stray","otc",NA,2019-07-10,"1000 CORONADO AVE, LONG BEACH, CA 90804","Long Beach","shelter, neuter, return","straycatal",33.7789862,-118.1534984,FALSE,TRUE,"33.7789862, -118.1534984","other","feral_fractious"
"172","A710037",NA,"cat","white",NA,"Male",2016-11-08,2023-11-08,"ill moderatete","stray","otc",NA,2023-11-08,"100 BLK W BARCLAY STREET LONG BEACH CA 90805","Long Beach","euthanasia","ill severe",33.8661015,-118.2027924,TRUE,FALSE,"33.8661015, -118.2027924","white","moderate"
"173","A706944",NA,"cat","gray","white","Female",2020-09-15,2023-09-15,"ill severe","stray","field",NA,2023-09-15,"100 BLK W BORT","Long Beach","euthanasia","inj severe",33.8702803,-118.2032493,TRUE,FALSE,"33.8702803, -118.2032493","grey","severe"
"174","A601521",NA,"cat","black",NA,"Female",2017-10-29,2017-12-29,"normal","stray","otc",NA,2018-01-02,"1000 DAWSON AVE, LONG BEACH, CA 90804","Long Beach","rescue","fndanifoun",33.7789723,-118.1654888,FALSE,TRUE,"33.7789723, -118.1654888","black","normal"
"175","A591760","hugs","cat","black",NA,"Neutered",2017-04-12,2017-06-12,"normal","stray","otc",NA,2017-08-26,"1000 E 10TH ST, LONG BEACH, CA 90813","Long Beach","adoption","pfe/pawshp",33.7788173,-118.1805015,FALSE,TRUE,"33.7788173, -118.1805015","black","normal"
"176","A591759","*yeti","cat","tortie",NA,"Female",2017-04-12,2017-06-12,"normal","stray","otc",NA,2017-06-21,"1000 E 10TH ST, LONG BEACH, CA 90813","Long Beach","transfer","spcala",33.7788173,-118.1805015,FALSE,TRUE,"33.7788173, -118.1805015","multi","normal"
"177","A520827","kiki","cat","calico",NA,"Spayed",2010-01-12,2017-09-27,"normal","owner surrender","otc","move",2017-10-05,"1000 E 32ND ST, SIGNAL HILL, CA 90755","Signal Hill","rescue","fndanifoun",33.8150621,-118.1804456,FALSE,TRUE,"33.8150621, -118.1804456","multi","normal"
"178","A596047","*elvira","cat","black",NA,"Spayed",2014-08-26,2017-12-27,"normal","stray","otc",NA,2017-12-30,"1000 E 4TH ST, LONG BEACH, CA 90802","Long Beach","rescue","catpaws",33.7714936,-118.1796768,FALSE,TRUE,"33.7714936, -118.1796768","black","normal"
"179","A678775","*salvador","cat","brown  tabby",NA,"Male",NA,2022-07-02,"normal","stray","otc",NA,2022-07-25,"1000 E 4TH ST, LONG BEACH, CA 90802","Long Beach","community cat",NA,33.7714936,-118.1796768,FALSE,TRUE,"33.7714936, -118.1796768","other","normal"
"180","A594983","*heididude","cat","orange","white","Neutered",2015-08-09,2017-08-09,"feral","stray","otc",NA,2017-08-17,"1000 E 4TH ST, LONG BEACH, CA 90802","Long Beach","shelter, neuter, return","straycatal",33.7714936,-118.1796768,FALSE,TRUE,"33.7714936, -118.1796768","orange","feral_fractious"
"181","A618844","*grasshopper","cat","brown  tabby",NA,"Spayed",2015-12-14,2018-12-14,"normal","stray","otc",NA,2018-12-27,"1000 E 5TH ST, LONG BEACH, CA 90802","Long Beach","shelter, neuter, return","straycatal",33.7729834,-118.1796718,FALSE,TRUE,"33.7729834, -118.1796718","other","normal"
"182","A634392","a634392","cat","brown  tabby",NA,"Spayed",2016-09-29,2019-09-29,"normal","stray","otc",NA,2019-10-08,"1000 E 5TH ST, LONG BEACH, CA 90802","Long Beach","shelter, neuter, return","straycatal",33.7729834,-118.1796718,FALSE,TRUE,"33.7729834, -118.1796718","other","normal"
"183","A637974","a637974 petusko","cat","black",NA,"Neutered",2013-12-28,2019-12-28,"fractious","stray","field",NA,2020-01-03,"1000 E SALT LAKE ST, LONG BEACH, CA 90806","Long Beach","shelter, neuter, return",NA,33.7962103,-118.1806361,FALSE,TRUE,"33.7962103, -118.1806361","black","feral_fractious"
"184","A669193","*pickles","cat","black",NA,"Male",2021-11-09,2022-01-09,"normal","stray","field",NA,2022-01-13,"1000 E WILLOW ST, LONG BEACH, CA 90806","Long Beach","rescue","catpaws",33.8038198,-118.1804545,FALSE,TRUE,"33.8038198, -118.1804545","black","normal"
"185","A670934","*betty","cat","brown  tabby",NA,"Spayed",2019-02-23,2022-02-23,"normal","stray","otc",NA,2022-03-05,"1000 GAVIOTA AVE, LONG BEACH, CA 90813","Long Beach","adoption","web",33.7789752,-118.1709214,FALSE,TRUE,"33.7789752, -118.1709214","other","normal"
"186","A643961",NA,"cat","brown  tabby","white","Female",2020-05-26,2020-06-17,"ill moderatete","stray","field",NA,2020-06-17,"100 E 56TH ST, LONG BEACH, CA 90805","Long Beach","rescue","sbacc",33.8575496,-118.1954039,FALSE,TRUE,"33.85754960000001, -118.1954039","other","moderate"
"187","A644301","*fiona","cat","brown  tabby",NA,"Spayed",2020-03-23,2020-06-23,"normal","stray","trap",NA,2020-07-29,"100 E 59TH ST, LONG BEACH, CA 90805","Long Beach","adoption","web",33.8627431,-118.1943384,FALSE,TRUE,"33.8627431, -118.1943384","other","normal"
"188","A628561","indy","cat","brown  tabby",NA,"Neutered",2019-03-20,2019-06-20,"normal","stray","otc",NA,2019-06-23,"1000 LIME AVE, LONG BEACH, CA 90813","Long Beach","adoption","walkin",33.7789839,-118.183959,FALSE,TRUE,"33.7789839, -118.183959","other","normal"
"189","A647366","*adam","cat","orange tabby",NA,"Neutered",2016-08-18,2020-08-18,"ill mild","stray","trap",NA,2020-10-07,"100 E ADAMS ST, LONG BEACH, CA 90805","Long Beach","shelter, neuter, return","straycatal",33.8695686,-118.2009737,FALSE,TRUE,"33.8695686, -118.2009737","orange","mild"
"190","A654357","*yu-jin","cat","brown  tabby","white","Neutered",2016-03-07,2021-02-22,"ill mild","stray","trap",NA,2021-03-18,"100 E ADAMS ST, LONG BEACH, CA 90805","Long Beach","rescue","straycatal",33.8695686,-118.2009737,FALSE,TRUE,"33.8695686, -118.2009737","other","mild"
"191","A591269","*angela","cat","gray","white","Spayed",2015-06-03,2017-06-03,"normal","stray","otc",NA,2017-07-12,"100 E BLK ADAMS ST, LONG BEACH, CA 90805","Long Beach","rescue","straycatal",33.8698318,-118.1953688,FALSE,TRUE,"33.8698318, -118.1953688","grey","normal"
"192","A623584",NA,"cat","brown  tabby","white","Female",2016-03-21,2019-03-21,"normal","stray","otc",NA,2019-03-28,"100 E EAGLE ST , LONG BEACH, CA 90806","Long Beach","euthanasia","ill severe",33.7996711,-118.1923808,TRUE,FALSE,"33.7996711, -118.1923808","other","normal"
"193","A724684","harp","cat","black","white","Spayed",2024-05-27,2024-07-14,"normal","stray","aban field",NA,2024-08-24,"100 E LOUSIE ST","Long Beach","rescue","littlelion",33.8549898,-118.1934473,FALSE,TRUE,"33.8549898, -118.1934473","black","normal"
"194","A615545",NA,"cat","brown  tabby",NA,"Unknown",2018-08-03,2018-10-03,"ill severe","stray","field",NA,2018-10-03,"100 E SUNSET ST, LONG BEACH, CA 90805","Long Beach","euthanasia","ill severe",33.8490603,-118.1934987,TRUE,FALSE,"33.8490603, -118.1934987","other","severe"
"195","A620392",NA,"cat","gray",NA,"Female",2017-01-17,2019-01-17,"normal","stray","field",NA,2019-01-22,"1000 WALNUT AVE, LONG BEACH, CA 90813","Long Beach","rescue","littlelion",33.7791395,-118.1718077,FALSE,TRUE,"33.7791395, -118.1718077","grey","normal"
"196","A598935","sniccers","cat","brown  tabby","white","Neutered",2014-10-18,2017-10-18,"normal","stray","otc",NA,2017-10-18,"1000 WALNUT AVE, LONG BEACH, CA 90813","Long Beach","return to rescue","other resc",33.7791395,-118.1718077,FALSE,TRUE,"33.7791395, -118.1718077","other","normal"
"197","A602153","*grey goose","cat","gray tabby","white","Neutered",2017-01-11,2018-01-11,"fractious","stray","otc",NA,2018-01-17,"10000 ASHWORTH CIR, CERRITOS, CA 90703","Cerritos","shelter, neuter, return","straycatal",33.8680518,-118.1081058,FALSE,TRUE,"33.8680518, -118.1081058","grey","feral_fractious"
"198","A656073","salem","cat","black",NA,"Neutered",2013-05-01,2021-04-09,"normal","stray","otc",NA,2021-04-10,"10000 BLK OAK ST, LOS ALAMITOS, CA 90720","Los Alamitos","return to owner","fre rid hm",33.808574,-118.0757121,FALSE,TRUE,"33.808574, -118.0757121","black","normal"
"199","A590802","catness","cat","gray",NA,"Female",2015-05-25,2017-05-25,"ill mild","owner surrender","otc","unknown",2017-07-12,"100 W MOUNTAIN VIEW ST, LONG BEACH, CA 90805","Long Beach","transfer","irvine acc",33.8517161,-118.1984884,FALSE,TRUE,"33.8517161, -118.1984884","grey","mild"
"200","A591834","*dove","cat","white","black","Spayed",2017-04-14,2017-06-14,"normal","stray","otc",NA,2017-07-15,"10000 BLK REAGAN ST, LOS ALAMITOS, CA 90720","Los Alamitos","rescue",NA,33.8085881,-118.0692551,FALSE,TRUE,"33.8085881, -118.0692551","white","normal"
"201","A733714",NA,"cat","brown  tabby",NA,"Male",2022-12-04,2024-12-04,"ill moderatete","stray","otc",NA,2024-12-04,"10000 BLK SANTA RITA STREET CYPRESS CA 90630","Out Of Area","euthanasia","ill severe",33.8119916,-118.0597656,TRUE,FALSE,"33.8119916, -118.0597656","other","moderate"
"202","A626785","*eve","cat","black",NA,"Spayed",2018-05-22,2019-05-22,"fractious","stray","otc",NA,2019-07-28,"100 W PLEASANT ST, LONG BEACH, CA 90805","Long Beach","transfer","spcala",33.846086,-118.1980353,FALSE,TRUE,"33.846086, -118.1980353","black","feral_fractious"
"203","A683657","*madison","cat","calico",NA,"Female",2022-08-22,2022-09-10,"ill mild","stray","otc",NA,2022-09-11,"1000 BL1000 BLK OBISPO AVE, LONG BEACH, CA 90804","Long Beach","rescue","catpaws",33.784649,-118.1545872,FALSE,TRUE,"33.784649, -118.1545872","multi","mild"
"204","A615538",NA,"cat","black","white","Male",2018-06-03,2018-10-03,"normal","stray","otc",NA,2018-10-07,"10000 BLK WYETH DR, CERRITOS, CA 90703","Cerritos","transfer","spcala",33.8566905,-118.0803696,FALSE,TRUE,"33.8566905, -118.0803696","black","normal"
"205","A615539",NA,"cat","black",NA,"Male",2018-06-03,2018-10-03,"normal","stray","otc",NA,2018-10-07,"10000 BLK WYETH DR, CERRITOS, CA 90703","Cerritos","transfer","spcala",33.8566905,-118.0803696,FALSE,TRUE,"33.8566905, -118.0803696","black","normal"
"206","A648158","mudd","cat","orange",NA,"Neutered",2020-02-10,2020-06-10,"normal","stray","field",NA,2020-06-13,"1000 BLK ALAMITOS AVE, LONG BEACH, CA 90813","Long Beach","adoption","good sam",33.7789677,-118.17907,FALSE,TRUE,"33.7789677, -118.17907","orange","normal"
"207","A627418","*soft-serve","cat","gray","white","Spayed",2017-05-31,2019-05-31,"fractious","stray","otc",NA,2019-06-15,"10000 ROBERTA ST, CERRITOS, CA 90703","Cerritos","shelter, neuter, return","straycatal",33.8797998,-118.1020948,FALSE,TRUE,"33.8797998, -118.1020948","grey","feral_fractious"
"208","A628516",NA,"cat","brown","white","Male",2019-05-25,2019-06-19,"normal","stray","otc",NA,2019-07-25,"10000 ROBERTA ST, CERRITOS, CA 90703","Cerritos","transfer","spcala",33.8797998,-118.1020948,FALSE,TRUE,"33.8797998, -118.1020948","brown","normal"
"209","A678427","*","cat","tan",NA,"Unknown",2022-04-26,2022-06-26,"normal","stray","otc",NA,2022-08-07,"1000 BLK BLOOMFIELD AVE. CYPRESS, CA 90630","Long Beach","adoption",NA,33.8261089,-118.0632869,FALSE,TRUE,"33.8261089, -118.0632869","tan","normal"
"210","A617378",NA,"cat","black","black smoke","Male",2018-09-09,2018-11-09,"normal","stray","otc",NA,2018-11-13,"101 E 28TH ST, LONG BEACH, CA 90806","Long Beach","transfer","spcala",33.8083479,-118.1923962,FALSE,TRUE,"33.8083479, -118.1923962","black","normal"
"211","A656369","*peppermint","cat","brown  tabby",NA,"Spayed",2021-01-16,2021-04-17,"normal","stray","otc",NA,2021-04-21,"1000 BLK CARSON ST, LONG BEACH CA 90810","Long Beach","adoption","web",33.8301159,-118.207088,FALSE,TRUE,"33.8301159, -118.207088","other","normal"
"212","A656368","*snoopy","cat","gray",NA,"Neutered",2020-08-16,2021-04-17,"normal","stray","otc",NA,2021-04-21,"1000 BLK CARSON ST, LONG BEACH CA 90810","Long Beach","adoption","web",33.8301159,-118.207088,FALSE,TRUE,"33.8301159, -118.207088","grey","normal"
"213","A601302",NA,"cat","calico","white","Female",2017-08-22,2017-12-22,"normal","stray","otc",NA,2017-12-31,"103 E 69TH ST, LONG BEACH, CA 90805","Long Beach","adoption","spcala",33.8795154,-118.2025639,FALSE,TRUE,"33.8795154, -118.2025639","multi","normal"
"214","A669286","lola","cat","black",NA,"Spayed",2021-10-13,2022-01-13,"normal","stray","otc",NA,2022-01-26,"1040 BLK E SOUTH ST, LONG BEACH, CA 90805","Long Beach","adoption","web",33.8599691,-118.179948,FALSE,TRUE,"33.8599691, -118.179948","black","normal"
"215","A667915","*jack","cat","black","white","Neutered",2021-10-10,2022-08-13,"ill mild","owner surrender","otc","ill",2023-01-04,"1000 BLK CERRITOS AVE, LONG BEACH, CA 90813","Long Beach","adoption","web",33.7789736,-118.1775378,FALSE,TRUE,"33.7789736, -118.1775378","black","mild"
"216","A610276",NA,"cat","gray tabby",NA,"Neutered",2010-07-10,2018-06-27,"normal","stray","trap",NA,2018-07-10,"1048 E 5TH ST, LONG BEACH, CA 90802","Long Beach","died","in care",33.7727218,-118.178634,TRUE,FALSE,"33.7727218, -118.178634","grey","normal"
"217","A703941","skylar","cat","orange","white","Neutered",2016-07-30,2023-09-11,"normal","welfare seized","hospital",NA,2023-09-13,"1050 LINDEN AVE","Long Beach","return to owner","fre rid hm",33.7805577,-118.1862725,FALSE,TRUE,"33.7805577, -118.1862725","orange","normal"
"218","A703940","azara","cat","black","white","Spayed",2018-07-30,2023-09-11,"normal","welfare seized","hospital",NA,2023-09-13,"1050 LINDEN AVE","Long Beach","return to owner","fre rid hm",33.7805577,-118.1862725,FALSE,TRUE,"33.7805577, -118.1862725","black","normal"
"219","A703941","skylar","cat","orange","white","Neutered",2016-07-30,2023-07-30,"normal","welfare seized","hospital",NA,2023-08-05,"1050 LINDEN AVE, LONG BEACH CA, 90813","Long Beach","return to owner","fre rid hm",33.7805577,-118.1862725,FALSE,TRUE,"33.7805577, -118.1862725","orange","normal"
"220","A721141","*daphne","cat","gray tabby",NA,"Spayed",2023-05-19,2024-05-19,"normal","stray","otc",NA,2024-06-05,"1000 BLK CORONADO AVE, LONG BEACH 90804","Long Beach","community cat","friendly",33.7789862,-118.1534984,FALSE,TRUE,"33.7789862, -118.1534984","grey","normal"
"221","A697301","*aphrodite","cat","cream","brown","Spayed",2018-04-26,2023-04-22,"normal","stray","otc",NA,2023-05-03,"1050/1052 E. HELLMAN ST, LB 90813","Long Beach","euthanasia","ill severe",33.7768406,-118.1784079,TRUE,FALSE,"33.7768406, -118.1784079","tan","normal"
"222","A590059","*momo","cat","black","white","Female",2017-02-23,2017-05-10,"ill mild","stray","field",NA,2017-06-22,"1000 BLK DAWSON AVE, LONG BEACH, CA 90804","Long Beach","rescue","catpaws",33.7789723,-118.1654888,FALSE,TRUE,"33.7789723, -118.1654888","black","mild"
"223","A694973","*mario","cat","orange",NA,"Neutered",2023-03-01,2023-03-19,"fractious","stray","otc",NA,2023-03-19,"1000 BLK E 12TH ST LB CA 90813","Long Beach","rescue","littlepaws",33.781478,-118.1806515,FALSE,TRUE,"33.781478, -118.1806515","orange","feral_fractious"
"224","A694965","*rosalina","cat","black","white","Female",2022-03-19,2023-03-19,"fractious","stray","otc",NA,2023-03-19,"1000 BLK E 12TH ST LB CA 90813","Long Beach","rescue","littlelion",33.781478,-118.1806515,FALSE,TRUE,"33.781478, -118.1806515","black","feral_fractious"
"225","A675785","*monique","cat","gray",NA,"Female",2022-03-25,2022-05-25,"normal","stray","field",NA,2022-07-06,"1000 BLK E 17H ST, LONG BEACH, CA 90813","Long Beach","adoption",NA,33.7878608,-118.1800616,FALSE,TRUE,"33.7878608, -118.1800616","grey","normal"
"226","A650066","mushko","cat","black",NA,"Neutered",2020-04-13,2020-10-15,"normal","stray","otc",NA,2020-12-31,"1000 BLK E 1ST ST, LONG BEACH, CA 90802","Long Beach","adoption","folba",33.7670481,-118.1805827,FALSE,TRUE,"33.7670481, -118.1805827","black","normal"
"227","A727252",NA,"cat","gray","white","Male",2024-07-21,2024-08-21,"ill mild","stray","field",NA,2024-08-22,"1000 BLK E 21ST ST, LONG BEACH, CA","Long Beach","euthanasia","at vet",33.7953124,-118.1806961,TRUE,FALSE,"33.7953124, -118.1806961","grey","mild"
"228","A669562","*vegas","cat","brown  tabby",NA,"Female",2010-01-19,2022-01-19,"ill severe","stray","field",NA,2022-01-28,"10600 BLK OAK ST, LOS AL 90720","Los Alamitos","euthanasia","ill severe",33.808574,-118.0757121,TRUE,FALSE,"33.808574, -118.0757121","other","severe"
"229","A638481","a638481*january","cat","brown  tabby",NA,"Spayed",2019-08-08,2020-01-12,"normal","stray","trap",NA,2020-01-21,"1000 BLK E 4TH ST, LONG BEACH, CA 90802","Long Beach","shelter, neuter, return","straycatal",33.7714936,-118.1796768,FALSE,TRUE,"33.7714936, -118.1796768","other","normal"
"230","A628977",NA,"cat","black","white","Male",2019-04-27,2019-06-27,"normal","stray","otc",NA,2019-06-30,"10615 ROBERTA ST, CERRITOS, CA 90703","Cerritos","transfer","spcala",33.8797998,-118.1020948,FALSE,TRUE,"33.8797998, -118.1020948","black","normal"
"231","A612516",NA,"cat","orange",NA,"Male",2018-06-07,2018-08-07,"normal","stray","field",NA,2018-08-10,"1066 E 1ST ST, LONG BEACH, CA 90802","Long Beach","transfer","spcala",33.7669015,-118.1792688,FALSE,TRUE,"33.7669015, -118.1792688","orange","normal"
"232","A620987","luna","cat","brown  tabby",NA,"Female",2017-01-27,2019-01-27,"normal","owner surrender","otc","owner prob",2019-01-29,"1000 BLK E 4TH ST, LONG BEACH, CA 90802","Long Beach","transfer","spcala",33.7714936,-118.1796768,FALSE,TRUE,"33.7714936, -118.1796768","other","normal"
"233","A620988","leo","cat","orange tabby",NA,"Male",2017-01-27,2019-01-27,"normal","owner surrender","otc","owner prob",2019-01-29,"1000 BLK E 4TH ST, LONG BEACH, CA 90802","Long Beach","transfer","spcala",33.7714936,-118.1796768,FALSE,TRUE,"33.7714936, -118.1796768","orange","normal"
"234","A643526",NA,"cat","gray tabby",NA,"Spayed",2015-06-06,2020-06-06,"fractious","stray","trap",NA,2020-06-25,"1000 BLK E 4TH ST, LONG BEACH, CA 90802","Long Beach","shelter, neuter, return","straycatal",33.7714936,-118.1796768,FALSE,TRUE,"33.7714936, -118.1796768","grey","feral_fractious"
"235","A607700","*chef guarnaschelli","cat","brown  tabby","white","Spayed",2013-05-16,2018-05-16,"fractious","stray","trap",NA,2018-05-31,"10700 BLK REVA PL, CERRITOS, CA 90703","Cerritos","shelter, neuter, return","straycatal",33.8673834,-118.1080783,FALSE,TRUE,"33.8673834, -118.1080783","other","feral_fractious"
"236","A614292","*autumn","cat","brown  tabby",NA,"Spayed",2015-09-08,2018-09-08,"normal","stray","trap",NA,2018-09-19,"1000 BLK E 5TH ST, LONG BEACH, CA 90802","Long Beach","shelter, neuter, return","straycatal",33.7729834,-118.1796718,FALSE,TRUE,"33.7729834, -118.1796718","other","normal"
"237","A721112","*onyx","cat","gray",NA,"Female",2024-04-18,2024-05-18,"normal","stray","aban field",NA,2024-05-24,"10700 BLK SOUTH ST","Cerritos","rescue","littlelion",33.8583939,-118.1000236,FALSE,TRUE,"33.8583939, -118.1000236","grey","normal"
"238","A712909","*oracle","cat","gray tabby",NA,"Spayed",2023-08-07,2024-01-07,"normal","stray","field",NA,2024-01-19,"10700 BLK SOUTH ST","Cerritos","adoption","web",33.8583939,-118.1000236,FALSE,TRUE,"33.8583939, -118.1000236","grey","normal"
"239","A721111","*diamond","cat","white",NA,"Female",2024-04-18,2024-05-18,"normal","stray","aban field",NA,2024-05-24,"10700 BLK SOUTH ST","Cerritos","rescue","littlelion",33.8583939,-118.1000236,FALSE,TRUE,"33.8583939, -118.1000236","white","normal"
"240","A591443",NA,"cat","brown  tabby",NA,"Unknown",2017-04-21,2017-06-06,"ill severe","stray","field",NA,2017-06-06,"1000 BLK E 5TH ST, LONG BEACH, CA 90802","Long Beach","died","enroute",33.7729834,-118.1796718,TRUE,FALSE,"33.7729834, -118.1796718","other","severe"
"241","A644511","sasha","cat","brown  tabby",NA,"Spayed",2017-06-27,2020-06-27,"normal","owner surrender","otc","abandon",2020-09-17,"1000 BLK E 5TH ST, LONG BEACH, CA 90802","Long Beach","adoption","pfe/pawshp",33.7729834,-118.1796718,FALSE,TRUE,"33.7729834, -118.1796718","other","normal"
"242","A725220","*dagger","cat","gray tabby",NA,"Neutered",2021-07-21,2024-07-21,"ill mild","stray","field",NA,2024-08-25,"10700 SOUTH ST","Cerritos","adoption","walkin",33.8584457,-118.0771476,FALSE,TRUE,"33.8584457, -118.0771476","grey","mild"
"243","A626632","*perkins","cat","black",NA,"Neutered",2016-05-18,2019-05-18,"fractious","stray","otc",NA,2019-06-01,"1000 BLK E 5TH ST, LONG BEACH, CA 90802","Long Beach","shelter, neuter, return","straycatal",33.7729834,-118.1796718,FALSE,TRUE,"33.7729834, -118.1796718","black","feral_fractious"
"244","A613558","*dark pit","cat","black",NA,"Neutered",2014-08-24,2018-08-24,"fractious","stray","otc",NA,2018-09-07,"1000 BLK E 5TH ST, LONG BEACH, CA 90802","Long Beach","shelter, neuter, return","straycatal",33.7729834,-118.1796718,FALSE,TRUE,"33.7729834, -118.1796718","black","feral_fractious"
"245","A707718",NA,"cat","black",NA,"Unknown",2023-08-27,2023-09-27,"ill severe","stray","field",NA,2023-09-30,"10701 SOUTH ST","Cerritos","euthanasia","at vet",33.858738,-118.107833,TRUE,FALSE,"33.858738, -118.107833","black","severe"
"246","A673858","*fariba","cat","calico",NA,"Spayed",2020-05-02,2022-05-02,"normal","stray","field",NA,2022-06-25,"10701 SOUTH ST, CERRITOS, CA 90703","Cerritos","adoption","web",33.858738,-118.107833,FALSE,TRUE,"33.858738, -118.107833","multi","normal"
"247","A624801","lacey","cat","seal point","flame point","Spayed",2018-04-16,2019-04-16,"normal","owner surrender","field",NA,2019-04-27,"1000 BLK E 7TH ST, LONG BEACH, CA 90813","Long Beach","adoption","walkin",33.7751351,-118.1799603,FALSE,TRUE,"33.7751351, -118.1799603","grey","normal"
"248","A620737","marsha brady","cat","gray tabby",NA,"Spayed",2018-01-23,2019-01-23,"fractious","stray","field",NA,2019-01-30,"10800 BLK PETULA PL, CERRITOS, CA 90703","Cerritos","shelter, neuter, return","straycatal",33.8809946,-118.1028822,FALSE,TRUE,"33.8809946, -118.1028822","grey","feral_fractious"
"249","A624809",NA,"cat","gray","white","Male",2019-04-01,2019-04-16,"normal","confiscate","police",NA,2019-04-18,"1000 BLK E 7TH ST, LONG BEACH, CA 90813","Long Beach","rescue","littlepaws",33.7751351,-118.1799603,FALSE,TRUE,"33.7751351, -118.1799603","grey","normal"
"250","A608335","*milkshake","cat","black","white","Neutered",2018-03-25,2018-05-25,"normal","stray","field",NA,2018-06-06,"1000 BLK E 7TH ST, LONG BEACH, CA 90813","Long Beach","adoption","pfe/pawshp",33.7751351,-118.1799603,FALSE,TRUE,"33.7751351, -118.1799603","black","normal"
"251","A732432","*holiday","cat","black",NA,"Neutered",2024-08-13,2024-11-13,"ill mild","stray","otc",NA,2024-11-26,"1000 BLK E 7TH STREET LONG BEACH CA 90813","Long Beach","community cat","commcat",33.7751351,-118.1799603,FALSE,TRUE,"33.7751351, -118.1799603","black","mild"
"252","A710861","tippy toes thompson","cat","orange tabby",NA,"Neutered",2021-11-19,2023-11-19,"ill moderatete","stray","otc",NA,2023-12-01,"1000 BLK E BURNETT STREET SIGNAL HILL CA 90755","Signal Hill","adoption",NA,33.8006285,-118.1801759,FALSE,TRUE,"33.8006285, -118.1801759","orange","moderate"
"253","A646849","boots","cat","gray tabby",NA,"Spayed",2020-03-09,2020-08-08,"normal","stray","otc",NA,2020-08-20,"10900 BLK ALONDRA BLVD, CERRITOS, CA 90703","Cerritos","adoption","web",33.8870852,-118.1016148,FALSE,TRUE,"33.8870852, -118.1016148","grey","normal"
"254","A710861","tippy toes thompson","cat","orange tabby",NA,"Neutered",2021-11-19,2023-12-13,"ill moderatete","return",NA,"cost",2023-12-27,"1000 BLK E BURNETT STREET SIGNAL HILL CA 90755","Signal Hill","adoption",NA,33.8006285,-118.1801759,FALSE,TRUE,"33.8006285, -118.1801759","orange","moderate"
"255","A714791","*larry","cat","black","white","Neutered",2023-12-26,2024-02-10,"normal","stray","otc",NA,2024-02-10,"1000 BLK E CHANDA CT LONG BEACH CA 90813","Long Beach","rescue","capaws",33.7762165,-118.1798936,FALSE,TRUE,"33.7762165, -118.1798936","black","normal"
"256","A714790","*curly","cat","orange tabby","white","Neutered",2023-12-27,2024-02-10,"normal","stray","otc",NA,2024-02-10,"1000 BLK E CHANDA CT LONG BEACH CA 90813","Long Beach","rescue","capaws",33.7762165,-118.1798936,FALSE,TRUE,"33.7762165, -118.1798936","orange","normal"
"257","A590853","lulu","cat","tricolor",NA,"Spayed",2016-05-26,2017-05-26,"normal","owner surrender","otc",NA,2017-08-02,"1000 BLK E HARDING ST, LONG BEACH, CA 90805","Long Beach","adoption","pfe/pawshp",33.8673322,-118.1810547,FALSE,TRUE,"33.8673322, -118.1810547","multi","normal"
"258","A671147","*juniper","cat","white","black","Female",2022-01-02,2022-03-02,"ill mild","stray","otc",NA,2022-03-03,"1000 BLK E HILL ST, LONG BEACH, CA 90806","Long Beach","rescue","catpaws",33.7969425,-118.1804227,FALSE,TRUE,"33.7969425, -118.1804227","white","mild"
"259","A625899","tigger","cat","orange",NA,"Neutered",2016-05-05,2019-05-05,"normal","stray","otc",NA,2019-05-08,"10TH ST / DAISY AVE, LONG BEACH, CA 90813","Long Beach","return to owner","walkin",33.7802992,-118.1993892,FALSE,TRUE,"33.7802992, -118.1993892","orange","normal"
"260","A598981","*cinnamom","cat","brown  tabby",NA,"Spayed",2015-10-19,2017-10-19,"normal","stray","field",NA,2017-12-28,"10TH ST / HOFFMAN AVE, LONG BEACH, CA 90813","Long Beach","adoption","web",33.7789674,-118.1736336,FALSE,TRUE,"33.7789674, -118.1736336","other","normal"
"261","A629132","macy","cat","gray tabby",NA,"Female",2019-03-30,2019-06-29,"normal","stray","otc",NA,2022-07-10,"10TH ST / LINDEN AVE, LONG BEACH, CA 90813","Long Beach","adoption",NA,33.7789716,-118.1863682,FALSE,TRUE,"33.7789716, -118.1863682","grey","normal"
"262","A629127","*jupiter","cat","black",NA,"Female",2019-05-30,2019-06-29,"normal","stray","otc",NA,2019-08-07,"10TH ST / LINDEN AVE, LONG BEACH, CA 90813","Long Beach","transfer","spcala",33.7789716,-118.1863682,FALSE,TRUE,"33.7789716, -118.1863682","black","normal"
"263","A629133","*nimbus","cat","gray tabby",NA,"Male",2019-03-30,2019-06-29,"normal","stray","otc",NA,2019-07-10,"10TH ST / LINDEN AVE, LONG BEACH, CA 90813","Long Beach","adoption","spcala",33.7789716,-118.1863682,FALSE,TRUE,"33.7789716, -118.1863682","grey","normal"
"264","A629134","*cirrus","cat","gray tabby",NA,"Male",2019-03-30,2019-06-29,"normal","stray","otc",NA,2019-08-10,"10TH ST / LINDEN AVE, LONG BEACH, CA 90813","Long Beach","adoption","spcala",33.7789716,-118.1863682,FALSE,TRUE,"33.7789716, -118.1863682","grey","normal"
"265","A629122","*tinky","cat","black",NA,"Neutered",2019-04-29,2019-06-29,"normal","stray","otc",NA,2020-01-09,"10TH ST / LINDEN AVE, LONG BEACH, CA 90813","Long Beach","adoption","pfe/pawshp",33.7789716,-118.1863682,FALSE,TRUE,"33.7789716, -118.1863682","black","normal"
"266","A612982","*neptune","cat","orange","white","Spayed",2016-08-17,2018-08-17,"fractious","stray","trap",NA,2018-08-31,"1000 BLK E MARKET ST, LONG BEACH, CA 90805","Long Beach","euthanasia","ill severe",33.8535366,-118.1825909,TRUE,FALSE,"33.8535366, -118.1825909","orange","feral_fractious"
"267","A612984","*vega","cat","gray",NA,"Spayed",2016-08-17,2018-08-17,"fractious","stray","trap",NA,2018-08-28,"1000 BLK E MARKET ST, LONG BEACH, CA 90805","Long Beach","shelter, neuter, return","straycatal",33.8535366,-118.1825909,FALSE,TRUE,"33.8535366, -118.1825909","grey","feral_fractious"
"268","A626110","*dasani","cat","black","white","Spayed",2019-02-22,2019-05-09,"normal","stray","otc",NA,2019-05-22,"1000 BLK E NEVADA ST, SIGNAL HILL, CA 90755","Signal Hill","adoption","pfe/pawshp",33.8013969,-118.1795944,FALSE,TRUE,"33.8013969, -118.1795944","black","normal"
"269","A626111","*sierra","cat","tortie dilute",NA,"Spayed",2019-02-22,2019-05-09,"normal","stray","otc",NA,2019-05-22,"1000 BLK E NEVADA ST, SIGNAL HILL, CA 90755","Signal Hill","adoption","pfe/pawshp",33.8013969,-118.1795944,FALSE,TRUE,"33.8013969, -118.1795944","multi","normal"
"270","A643147","*scone","cat","gray tabby","white","Neutered",2020-03-27,2020-08-14,"normal","return","adoption","nofriendly",2020-09-09,"1000 BLK E OCEAN BLVD, LONG BEACH, CA 90802","Long Beach","rescue","lbsnnres",33.7657333,-118.1808587,FALSE,TRUE,"33.7657333, -118.1808587","grey","normal"
"271","A634189","*sugarplum fairy","cat","black","white","Female",2019-07-26,2019-09-26,"normal","stray","otc",NA,2019-11-19,"1100 BLK ARTESIA BLVD, LONG BEACH, CA 90805","Long Beach","rescue","littlepaws",33.8743797,-118.1791202,FALSE,TRUE,"33.8743797, -118.1791202","black","normal"
"272","A672472","johnny","cat","black","white","Neutered",2021-09-30,2022-03-30,"normal","welfare seized","hospital",NA,2022-04-13,"1100 BLK ATLANTIC AVE, LONG BEACH, CA 90813","Long Beach","adoption","web",33.7812864,-118.1847412,FALSE,TRUE,"33.7812864, -118.1847412","black","normal"
"273","A703497","*frankie","cat","white","gray","Male",2023-06-25,2023-07-25,"ill moderatete","stray","field",NA,2023-08-03,"1000 BLK E SALT LAKE ST","Long Beach","rescue","littlepaws",33.7962103,-118.1806361,FALSE,TRUE,"33.7962103, -118.1806361","white","moderate"
"274","A726546",NA,"cat","black","white","Male",2019-08-10,2024-08-10,"ill moderatete","stray","field",NA,2024-08-13,"1000 BLK E SALT LAKE ST, LONG BEACH","Long Beach","euthanasia","ill severe",33.7962104,-118.1806723,TRUE,FALSE,"33.7962104, -118.1806723","black","moderate"
"275","A643880",NA,"cat","orange tabby",NA,"Male",2020-05-08,2020-06-14,"ill mild","stray","otc",NA,2020-06-14,"1000 BLK E TERRACE DR, LONG BEACH, CA 90807","Long Beach","euthanasia","ill severe",33.8440894,-118.1818379,TRUE,FALSE,"33.8440894, -118.1818379","orange","mild"
"276","A693675","teddy","cat","gray tabby","white","Neutered",2022-08-19,2023-02-19,"normal","stray","otc",NA,2023-02-23,"1000 BLK E. 4TH ST, LONG BEACH, CA 90802","Long Beach","rescue","catpaws",33.7714936,-118.1796768,FALSE,TRUE,"33.7714936, -118.1796768","grey","normal"
"277","A685657","*priscilla","cat","tortie",NA,"Spayed",2021-11-14,2022-09-26,"normal","stray","otc",NA,2023-01-04,"1000 BLK E. 4TH ST, LONG BEACH, CA 90802","Long Beach","adoption","pfe/pawshp",33.7714936,-118.1796768,FALSE,TRUE,"33.7714936, -118.1796768","multi","normal"
"278","A586498",NA,"cat","brown  tabby",NA,"Male",2015-03-03,2017-03-03,"ill severe","stray","field",NA,2017-03-03,"1100 BLK CHESTNUT AVE, LONG BEACH, CA 90813","Long Beach","died","enroute",33.780366,-118.1960828,TRUE,FALSE,"33.780366, -118.1960828","other","severe"
"279","A597335",NA,"cat","gray","brown","Female",2012-09-18,2017-09-18,"normal","stray","field",NA,2017-09-18,"1000 BLK ELECTRIC AVE, SEAL BEACH, CA 90740","Seal Beach","transfer","sbacc",33.7416173,-118.1031922,FALSE,TRUE,"33.7416173, -118.1031922","grey","normal"
"280","A638742","*plumeria","cat","brown  tabby","white","Spayed",2019-08-19,2020-01-19,"normal","stray","otc",NA,2020-01-29,"1100 BLK DAWSON AVE, LONG BEACH, CA 90804","Long Beach","adoption","walkin",33.7807783,-118.1654866,FALSE,TRUE,"33.7807783, -118.1654866","other","normal"
"281","A649143",NA,"cat","gray tabby",NA,"Female",2019-09-18,2020-09-18,"ill severe","stray","field",NA,2020-09-18,"1000 BLK GAVIOTA AVE, LONG BEACH, CA 90813","Long Beach","died","in kennel",33.7789752,-118.1709214,TRUE,FALSE,"33.7789752, -118.1709214","grey","severe"
"282","A595265",NA,"cat","calico","brown  tabby","Female",2017-04-12,2017-08-12,"normal","stray","field",NA,2017-08-30,"1100 BLK E 17TH ST, LONG BEACH, CA 90813","Long Beach","transfer","spcala",33.7880474,-118.1785045,FALSE,TRUE,"33.7880474, -118.1785045","multi","normal"
"283","A706171","snowflake","cat","brown  tabby","white","Spayed",2023-07-28,2024-09-22,"normal","owner surrender","otc","landlord",NA,"1100 BLK E 17TH STREET LONG BEACH CA 90813","Long Beach",NA,NA,33.7880524,-118.1785236,FALSE,TRUE,"33.7880524, -118.1785236","other","normal"
"284","A627238","*fun bun","cat","brown  tabby","white","Spayed",2016-05-29,2019-05-29,"normal","stray","trap",NA,2019-06-15,"1100 BLK E 23RD ST, SIGNAL HILL, CA 90755","Signal Hill","shelter, neuter, return","straycatal",33.798673,-118.17834,FALSE,TRUE,"33.798673, -118.17834","other","normal"
"285","A624242",NA,"cat","black",NA,"Unknown",2015-04-04,2019-04-04,"ill severe","stray","field",NA,2019-04-04,"1100 BLK E 32ND ST, SIGNAL HILL, CA 90755","Signal Hill","euthanasia","inj severe",33.815039,-118.178429,TRUE,FALSE,"33.815039, -118.178429","black","severe"
"286","A694249","bits","cat","gray",NA,"Female",2018-03-05,2023-03-05,"normal","stray","field",NA,2023-03-16,"1100 BLK E 4TH ST. LONG BEACH, CA 90802","Long Beach","transfer","spcala",33.7715811,-118.1777235,FALSE,TRUE,"33.7715811, -118.1777235","grey","normal"
"287","A654476","*huxley","cat","black",NA,"Spayed",2019-02-28,2021-02-28,"normal","stray","otc",NA,2021-03-05,"1000 BLK LEWIS AVE, LONG BEACH, CA 90813","Long Beach","transfer","spcala",33.7789754,-118.1795513,FALSE,TRUE,"33.7789754, -118.1795513","black","normal"
"288","A622668","*simone","cat","black","white","Spayed",2016-03-02,2019-03-02,"normal","stray","otc",NA,2019-04-28,"1000 BLK LEWIS AVE, LONG BEACH, CA 90813","Long Beach","adoption","pfe/pawshp",33.7789754,-118.1795513,FALSE,TRUE,"33.7789754, -118.1795513","black","normal"
"289","A691356","*storm","cat","gray tabby","white","Spayed",2021-01-04,2023-01-03,"normal","quarantine",NA,NA,2023-01-19,"1000 BLK LIME AVE, LB 90813","Long Beach","adoption",NA,33.7789839,-118.183959,FALSE,TRUE,"33.7789839, -118.183959","grey","normal"
"290","A596803","*bambi","cat","brown  tabby",NA,"Spayed",2013-09-09,2017-09-09,"normal","stray","field",NA,2017-10-29,"1000 BLK LIME AVE, LONG BEACH, CA 90813","Long Beach","transfer","spcala",33.7789839,-118.183959,FALSE,TRUE,"33.7789839, -118.183959","other","normal"
"291","A676064",NA,"cat","orange tabby",NA,"Male",2014-05-28,2022-05-28,"ill severe","stray","field",NA,2022-05-28,"1100 BLK E 9TH ST, LONG BEACH, CA 90813","Long Beach","euthanasia","ill severe",33.7779258,-118.1774305,TRUE,FALSE,"33.7779258, -118.1774305","orange","severe"
"292","A630038",NA,"cat","gray tabby","white","Female",2018-07-17,2019-07-17,"normal","stray","otc",NA,2019-07-19,"1000 BLK LIME AVE, LONG BEACH, CA 90813","Long Beach","transfer","spcala",33.7789839,-118.183959,FALSE,TRUE,"33.7789839, -118.183959","grey","normal"
"293","A684444","irene","cat","black",NA,"Spayed",2018-09-19,2023-09-06,"normal","welfare seized","owner died",NA,2023-09-28,"1000 BLK LINDEN AVE, LB 90813","Long Beach","adoption","web",33.7794251,-118.187322,FALSE,TRUE,"33.7794251, -118.187322","black","normal"
"294","A627427","627427","cat","white","black","Spayed",2016-05-31,2019-05-31,"normal","stray","trap",NA,2019-07-05,"1100 BLK E ANAHEIM ST, LONG BEACH, CA 90813","Long Beach","shelter, neuter, return","straycatal",33.7822849,-118.1788917,FALSE,TRUE,"33.7822849, -118.1788917","white","normal"
"295","A587542","*alexa","cat","gray","white","Female",2016-03-25,2017-03-25,"normal","stray","otc",NA,2017-04-01,"1000 BLK LOMA AVE, LONG BEACH, CA 90804","Long Beach","transfer","spcala",33.778962,-118.1502333,FALSE,TRUE,"33.778962, -118.1502333","grey","normal"
"296","A596935",NA,"cat","seal point",NA,"Male",2012-09-12,2017-09-12,"ill severe","stray","otc",NA,2017-09-12,"1000 BLK MOLINO AVE, LONG BEACH, CA 90804","Long Beach","euthanasia",NA,33.7791148,-118.1609526,TRUE,FALSE,"33.7791148, -118.1609526","grey","severe"
"297","A598316","*carson","cat","white",NA,"Male",2015-10-06,2017-10-06,"normal","stray","otc",NA,2017-12-22,"1100 BLK E CARSON ST, LONG BEACH, CA 90807","Long Beach","adoption","spcala",33.832085,-118.1787188,FALSE,TRUE,"33.832085, -118.1787188","white","normal"
"298","A628062",NA,"cat","gray","orange","Female",2019-05-08,2019-06-10,"normal","stray","otc",NA,2019-06-12,"1000 BLK MYRTLE AVE, LONG BEACH, CA 90813","Long Beach","transfer","spcala",33.7789718,-118.1817845,FALSE,TRUE,"33.7789718, -118.1817845","grey","normal"
"299","A628061",NA,"cat","black","orange","Female",2019-05-08,2019-06-10,"normal","stray","otc",NA,2019-06-12,"1000 BLK MYRTLE AVE, LONG BEACH, CA 90813","Long Beach","transfer","spcala",33.7789718,-118.1817845,FALSE,TRUE,"33.7789718, -118.1817845","black","normal"
"300","A631128","jinjo","cat","black smoke",NA,"Neutered",2019-07-27,2019-08-02,"normal","stray","otc",NA,2019-12-05,"1000 BLK MYRTLE AVE, LONG BEACH, CA 90813","Long Beach","adoption","walkin",33.7789718,-118.1817845,FALSE,TRUE,"33.7789718, -118.1817845","black","normal"
"301","A637759",NA,"cat","gray tabby","white","Male",2015-12-20,2019-12-20,"normal","stray","otc",NA,2019-12-28,"1100 BLK E OCEAN BLVD, LONG BEACH, CA 90802","Long Beach","transfer","spcala",33.7655238,-118.1791885,FALSE,TRUE,"33.7655238, -118.1791885","grey","normal"
"302","A656447",NA,"cat","blue tabby",NA,"Male",2021-03-25,2021-04-19,"fractious","stray","otc",NA,2021-05-02,"1000 BLK N ALMOND CT, LONG BEACH, CA 90813","Long Beach","adoption",NA,33.7789711,-118.1751043,FALSE,TRUE,"33.7789711, -118.1751043","grey","feral_fractious"
"303","A591114","suri","cat","black",NA,"Spayed",2016-06-01,2017-06-01,"normal","owner surrender","otc","owner prob",2018-07-07,"1000 BLK OAK ST, LOS ALAMITOS, CA 90720","Los Alamitos","rescue","straycatal",33.8054312,-118.0757934,FALSE,TRUE,"33.8054312, -118.0757934","black","normal"
"304","A693741","lulu","cat","brown  tabby","white","Female",2022-02-22,2023-02-22,"normal","owner surrender","otc","owner prob",2023-02-23,"1000 BLK OBISPO AVE, LB CA 90804","Long Beach","transfer","spcala",33.778969,-118.1545877,FALSE,TRUE,"33.778969, -118.1545877","other","normal"
"305","A683654","*brad","cat","black","white","Male",2022-08-22,2022-09-10,"ill mild","stray","otc",NA,2022-09-11,"1000 BLK OBISPO AVE, LONG BEACH, CA 90804","Long Beach","rescue","catpaws",33.778969,-118.1545877,FALSE,TRUE,"33.778969, -118.1545877","black","mild"
"306","A683656","*bryce","cat","gray tabby",NA,"Male",2022-08-22,2022-09-10,"ill mild","stray","otc",NA,2022-09-11,"1000 BLK OBISPO AVE, LONG BEACH, CA 90804","Long Beach","rescue","catpaws",33.778969,-118.1545877,FALSE,TRUE,"33.778969, -118.1545877","grey","mild"
"307","A709042","*scratchy","cat","orange",NA,"Neutered",2016-10-20,2023-10-20,"ill mild","stray","otc",NA,2023-12-12,"1100 BLK ELM AVE LONG BEACH CA 90813","Long Beach","community cat","friendly",33.7813009,-118.187721,FALSE,TRUE,"33.7813009, -118.187721","orange","mild"
"308","A719978","*mona","cat","brown  tabby",NA,"Spayed",2016-05-01,2024-05-01,"ill moderatete","stray","otc",NA,2024-05-28,"1000 BLK OLIVE AVE LONG BEACH CA 90813","Long Beach","community cat","friendly",33.7789912,-118.1828784,FALSE,TRUE,"33.7789912, -118.1828784","other","moderate"
"309","A627665","rooney","cat","black","white","Neutered",2015-06-05,2019-06-05,"normal","stray","otc",NA,2019-06-20,"1100 BLK ELM AVE, LONG BEACH, CA 90813","Long Beach","adoption","web",33.7813009,-118.187721,FALSE,TRUE,"33.7813009, -118.187721","black","normal"
"310","A612435","*armani","cat","tortie",NA,"Female",2018-06-05,2018-08-05,"normal","owner surrender","otc",NA,2018-09-05,"1000 BLK ORANGE AVE, LONG BEACH, CA 90813","Long Beach","rescue","fndanifoun",33.7791565,-118.1760129,FALSE,TRUE,"33.7791565, -118.1760129","multi","normal"
"311","A612431","cat 2","cat","yellow",NA,"Male",2016-08-05,2018-08-05,"normal","owner surrender","otc",NA,2018-09-07,"1000 BLK ORANGE AVE, LONG BEACH, CA 90813","Long Beach","euthanasia","beh modera",33.7791565,-118.1760129,TRUE,FALSE,"33.7791565, -118.1760129","yellow","normal"
"312","A695246","*ori momma cat","cat","gray",NA,"Female",2021-03-23,2023-03-23,"normal","stray","otc",NA,2023-03-24,"1000 BLK ORIZABA AVE, LONG BEACH, CA 90804","Long Beach","rescue","littlelion",33.7789857,-118.1567601,FALSE,TRUE,"33.7789857, -118.1567601","grey","normal"
"313","A665928","*","cat","calico tabby",NA,"Female",2021-02-28,2021-10-28,"normal","welfare seized","hospital",NA,2021-11-05,"1000 BLK PACIFIC AVE, LONG BEACH, CA 90813","Long Beach","return to rescue","other resc",33.7789911,-118.1934664,FALSE,TRUE,"33.7789911, -118.1934664","multi","normal"
"314","A665922","kobe","cat","black","white","Neutered",2021-04-28,2021-10-28,"normal","welfare seized","hospital",NA,2021-12-22,"1000 BLK PACIFIC AVE, LONG BEACH, CA 90813","Long Beach","adoption","web",33.7789911,-118.1934664,FALSE,TRUE,"33.7789911, -118.1934664","black","normal"
"315","A589765",NA,"cat","black",NA,"Female",2017-03-05,2017-05-05,"normal","stray","field",NA,2017-05-08,"1100 BLK HOFFMAN AVE, LONG BEACH, CA 90813","Long Beach","transport","other resc",33.7807842,-118.1736372,FALSE,TRUE,"33.7807842, -118.1736372","black","normal"
"316","A665925","*","cat","calico dilute",NA,"Female",2021-02-28,2021-10-28,"normal","welfare seized","hospital",NA,2021-11-05,"1000 BLK PACIFIC AVE, LONG BEACH, CA 90813","Long Beach","return to rescue","other resc",33.7789911,-118.1934664,FALSE,TRUE,"33.7789911, -118.1934664","multi","normal"
"317","A589775",NA,"cat","brown  tabby",NA,"Male",2017-03-11,2017-05-05,"normal","stray","field",NA,2017-05-19,"1100 BLK HOFFMAN AVE, LONG BEACH, CA 90813","Long Beach","transport","other shel",33.7807842,-118.1736372,FALSE,TRUE,"33.7807842, -118.1736372","other","normal"
"318","A589772",NA,"cat","gray tabby",NA,"Male",2017-02-18,2017-05-05,"normal","stray","field",NA,2017-05-08,"1100 BLK HOFFMAN AVE, LONG BEACH, CA 90813","Long Beach","transport","other resc",33.7807842,-118.1736372,FALSE,TRUE,"33.7807842, -118.1736372","grey","normal"
"319","A663726","elliott","cat","orange tabby",NA,"Neutered",2019-08-03,2021-10-28,"normal","welfare seized","hospital",NA,2021-11-14,"1000 BLK PACIFIC AVE, LONG BEACH, CA 90813","Long Beach","return to owner","walkin",33.7789911,-118.1934664,FALSE,TRUE,"33.7789911, -118.1934664","orange","normal"
"320","A589766",NA,"cat","black",NA,"Female",2017-03-05,2017-05-05,"normal","stray","field",NA,2017-05-08,"1100 BLK HOFFMAN AVE, LONG BEACH, CA 90813","Long Beach","transport","other resc",33.7807842,-118.1736372,FALSE,TRUE,"33.7807842, -118.1736372","black","normal"
"321","A586640","jenga","cat","tortie",NA,"Female",2003-03-05,2017-03-05,"ill mild","owner surrender","otc","poor helth",2017-03-24,"1100 BLK JUNIPERO AVE, LONG BEACH, CA 90804","Long Beach","rescue","catpaws",33.7807467,-118.1633018,FALSE,TRUE,"33.7807467, -118.1633018","multi","mild"
"322","A669675","smurfy","cat","silver tabby","white","Neutered",2021-04-23,2022-01-23,"normal","owner surrender","otc",NA,2022-02-02,"1000 BLK REDONDO AVE, LONG BEACH, CA 90804","Long Beach","adoption","web",33.7791167,-118.1521767,FALSE,TRUE,"33.7791167, -118.1521767","grey","normal"
"323","A627485","*govna","cat","black",NA,"Neutered",2016-06-01,2019-06-01,"fractious","stray","trap",NA,2019-06-15,"1000 BLK ROBERTA ST, CERRITOS, CA 90703","Cerritos","shelter, neuter, return","straycatal",33.8797843,-118.1012925,FALSE,TRUE,"33.8797843, -118.1012925","black","feral_fractious"
"324","A677695","*inky","cat","black","white","Neutered",2021-10-15,2022-06-15,"ill mild","stray","otc",NA,2022-08-31,"1100 BLK MYRTLE AVE, LONG BEACH, CA 90813","Long Beach","adoption","web",33.7809285,-118.181451,FALSE,TRUE,"33.78092850000001, -118.181451","black","mild"
"325","A654402",NA,"cat","brown  tabby",NA,"Female",2020-02-24,2021-02-24,"ill severe","stray","field",NA,2021-02-25,"1100 BLK N LOMA VISTA DR, LONG BEACH, CA 90813","Long Beach","euthanasia","at vet",33.7801667,-118.2006061,TRUE,FALSE,"33.7801667, -118.2006061","other","severe"
"326","A725971",NA,"cat","orange tabby",NA,"Male",NA,2024-07-31,"ill severe","stray","field",NA,2024-07-31,"1000 BLK SALT LAKE ST, LONG BEACH CA","Long Beach","euthanasia","at vet",33.7962102,-118.1806651,TRUE,FALSE,"33.7962102, -118.1806651","orange","severe"
"327","A623264","athena","cat","white",NA,"Spayed",2014-03-15,2019-03-15,"normal","owner surrender","otc",NA,2019-12-27,"1000 BLK STANLEY AVE, LONG BEACH, CA 90804","Long Beach","adoption","pfe/pawshp",33.7791709,-118.1621,FALSE,TRUE,"33.7791709, -118.1621","white","normal"
"328","A616786",NA,"cat","orange tabby",NA,"Male",2018-07-28,2018-10-28,"ill severe","stray","field",NA,2018-10-28,"1100 BLK OLIVE AVE, LONG BEACH, CA 90813","Long Beach","euthanasia","ill severe",33.7809441,-118.182685,TRUE,FALSE,"33.7809441, -118.182685","orange","severe"
"329","A671977","*chavi","cat","tortie",NA,"Spayed",2019-03-19,2022-03-20,"normal","stray","otc",NA,2022-05-04,"1000 BLK VINA AVE, LONG BEACH, CA 90813","Long Beach","adoption","pfe/pawshp",33.7789885,-118.1692962,FALSE,TRUE,"33.7789885, -118.1692962","multi","normal"
"330","A663848","*itty bitty","cat","tortie",NA,"Spayed",2018-09-16,2021-09-16,"normal","stray","otc",NA,2023-01-01,"1000 BLK VINA AVE, LONG BEACH, CA 90813","Long Beach","adoption","pfe/pawshp",33.7789885,-118.1692962,FALSE,TRUE,"33.7789885, -118.1692962","multi","normal"
"331","A679034","*kiki","cat","tortie",NA,"Spayed",2021-07-08,2022-08-31,"normal","owner surrender","field","afraid",2022-11-30,"1100 BLK PINE AVE, LONG BEACH, CA 90813","Long Beach","adoption","pfe/pawshp",33.7805129,-118.1921322,FALSE,TRUE,"33.7805129, -118.1921322","multi","normal"
"332","A599848",NA,"cat","black",NA,"Male",2011-11-08,2017-11-08,"ill mild","stray","field",NA,2017-11-09,"1000 BLK WALNUT AVE, LONG BEACH, CA 90813","Long Beach","euthanasia","ill severe",33.7791395,-118.1718077,TRUE,FALSE,"33.7791395, -118.1718077","black","mild"
"333","A650575","*aries","cat","gray","white","Spayed",2020-07-28,2020-10-31,"normal","stray","otc",NA,2020-11-11,"1000 BLK WALNUT AVE, LONG BEACH, CA 90813","Long Beach","adoption","web",33.7791395,-118.1718077,FALSE,TRUE,"33.7791395, -118.1718077","grey","normal"
"334","A585882","morena","cat","black","white","Spayed",2016-02-17,2017-02-17,"normal","stray","otc",NA,2017-02-24,"1100 BLK RAYMOND AVE, LONG BEACH, CA 90814","Long Beach","rescue","fndanifoun",33.7807454,-118.1643953,FALSE,TRUE,"33.7807454, -118.1643953","black","normal"
"335","A650572","*saint","cat","white","black","Neutered",2020-07-28,2020-10-31,"normal","stray","otc",NA,2020-11-11,"1000 BLK WALNUT AVE, LONG BEACH, CA 90813","Long Beach","adoption","web",33.7791395,-118.1718077,FALSE,TRUE,"33.7791395, -118.1718077","white","normal"
"336","A713471","*peeps","cat","black","white","Spayed",2023-09-20,2024-01-18,"normal","stray","otc",NA,2024-01-24,"1000 BLOCK HOFFMAN AVE, LONG BEACH","Long Beach","adoption","web",33.7789674,-118.1736336,FALSE,TRUE,"33.7789674, -118.1736336","black","normal"
"337","A706945",NA,"cat","calico",NA,"Female",2023-07-15,2023-09-15,"ill severe","stray","otc",NA,2023-09-15,"1100 BLOCK MLK JR AVE, LONG BEACH CA","Long Beach","euthanasia","inj severe",33.780895,-118.1805488,TRUE,FALSE,"33.780895, -118.1805488","multi","severe"
"338","A707001",NA,"cat","gray",NA,"Male",2023-08-25,2023-09-16,"ill mild","stray","otc",NA,2023-09-16,"1000 BLOCK WALNUT, LONG BEACH, CA","Long Beach","euthanasia","inj severe",33.7791395,-118.1718077,TRUE,FALSE,"33.7791395, -118.1718077","grey","mild"
"339","A628505",NA,"cat","black",NA,"Female",2019-06-10,2019-06-19,"normal","stray","otc",NA,2019-08-03,"1000 CORONADO AVE, LONG BEACH, CA 90804","Long Beach","transfer","spcala",33.7789862,-118.1534984,FALSE,TRUE,"33.7789862, -118.1534984","black","normal"
"340","A703402","*dingo","cat","white","black","Neutered",2023-05-22,2023-07-22,"normal","stray","field",NA,2023-09-23,"1100 E 17TH ST","Long Beach","adoption",NA,33.7880474,-118.1785045,FALSE,TRUE,"33.7880474, -118.1785045","white","normal"
"341","A597191","sky","cat","gray","white","Female",2014-09-16,2017-09-16,"normal","owner surrender","otc","owner prob",2017-09-20,"1000 DAWSON AVE, LONG BEACH, CA 90804","Long Beach","transfer","spcala",33.7789723,-118.1654888,FALSE,TRUE,"33.7789723, -118.1654888","grey","normal"
"342","A617326","*jagger","cat","black","white","Spayed",2016-11-08,2018-11-08,"normal","stray","otc",NA,2018-12-05,"1100 E 19TH ST, LONG BEACH, CA 90806","Long Beach","shelter, neuter, return","straycatal",33.7911473,-118.177982,FALSE,TRUE,"33.7911473, -118.177982","black","normal"
"343","A672739","smokey","cat","seal point",NA,"Neutered",2020-10-06,2022-04-07,"normal","owner surrender","otc",NA,2022-06-10,"1100 E 4TH ST, LONG BEACH, CA 90802","Long Beach","return to owner","walkin",33.7715811,-118.1777235,FALSE,TRUE,"33.7715811, -118.1777235","grey","normal"
"344","A650212","*fabi","cat","calico",NA,"Spayed",2020-06-18,2020-10-18,"normal","stray","otc",NA,2020-11-19,"1000 E 2ND ST, LONG BEACH, CA 90802","Long Beach","rescue","lbsnnres",33.768057,-118.1805135,FALSE,TRUE,"33.768057, -118.1805135","multi","normal"
"345","A637338","*scarlett","cat","black","white","Spayed",2019-08-08,2019-12-08,"normal","stray","otc",NA,2019-12-26,"1000 E 32ND ST, LONG BEACH, CA 90807","Long Beach","adoption","spec evt",33.815274,-118.1870553,FALSE,TRUE,"33.815274, -118.1870553","black","normal"
"346","A609351","*today","cat","gray tabby",NA,"Spayed",2016-06-08,2018-06-08,"normal","stray","otc",NA,2018-06-26,"1100 E 70TH WAY, LONG BEACH, CA 90805","Long Beach","shelter, neuter, return","straycatal",33.8826416,-118.1792065,FALSE,TRUE,"33.8826416, -118.1792065","grey","normal"
"347","A609355","*josie","cat","gray tabby",NA,"Female",2018-04-08,2018-06-08,"normal","stray","otc",NA,2018-08-01,"1100 E 70TH WAY, LONG BEACH, CA 90805","Long Beach","rescue","fndanifoun",33.8826416,-118.1792065,FALSE,TRUE,"33.8826416, -118.1792065","grey","normal"
"348","A612836","*alex","cat","black",NA,"Neutered",2013-08-15,2018-10-12,"normal","stray","otc",NA,2018-10-17,"1000 E 5TH ST, LONG BEACH, CA 90802","Long Beach","return to rescue","straycatal",33.7729834,-118.1796718,FALSE,TRUE,"33.7729834, -118.1796718","black","normal"
"349","A627276","*abby","cat","brown  tabby","white","Spayed",2018-05-29,2019-05-29,"fractious","stray","trap",NA,2019-06-14,"1100 E ANAHEIM ST, LONG BEACH, CA 90813","Long Beach","shelter, neuter, return","straycatal",33.7822849,-118.1788917,FALSE,TRUE,"33.7822849, -118.1788917","other","feral_fractious"
"350","A627271","*kumara","cat","brown  tabby","white","Female",2019-04-05,2019-05-29,"fractious","stray","otc",NA,2020-01-10,"1100 E ANAHEIM ST, LONG BEACH, CA 90813","Long Beach","rescue","straycatal",33.7822849,-118.1788917,FALSE,TRUE,"33.7822849, -118.1788917","other","feral_fractious"
"351","A627296","*abe","cat","orange tabby",NA,"Neutered",2015-05-29,2019-05-29,"fractious","stray","trap",NA,2019-06-14,"1100 E ANAHEIM ST, LONG BEACH, CA 90814","Long Beach","shelter, neuter, return","straycatal",33.7822849,-118.1788917,FALSE,TRUE,"33.7822849, -118.1788917","orange","feral_fractious"
"352","A588532","*lorenzo","cat","black","white","Neutered",2013-04-13,2017-04-13,"ill mild","stray","otc",NA,2017-08-18,"1000 E BURNETT ST, SIGNAL HILL, CA 90755","Signal Hill","adoption","pfe/pawshp",33.8006285,-118.1801759,FALSE,TRUE,"33.8006285, -118.1801759","black","mild"
"353","A692440","*kyle","cat","gray",NA,"Neutered",2019-01-26,2023-02-17,"normal","return","adoption","bites",2023-03-11,"1000 E. 7TH ST, LONG BEACH, CA 90813","Long Beach","adoption","web",33.7751351,-118.1799603,FALSE,TRUE,"33.7751351, -118.1799603","grey","normal"
"354","A600598","kershaw","cat","white",NA,"Neutered",2017-04-30,2017-11-30,"normal","stray","otc",NA,2018-01-03,"1000 HOFFMAN AVE, LONG BEACH, CA 90813","Long Beach","adoption","walkin",33.7789674,-118.1736336,FALSE,TRUE,"33.7789674, -118.1736336","white","normal"
"355","A637472","pepos","cat","brown","black","Neutered",2019-06-13,2019-12-13,"normal","stray","otc",NA,2019-12-20,"1100 MOLINO AVE, LONG BEACH, CA 90804","Long Beach","return to owner","walkin",33.7807871,-118.161129,FALSE,TRUE,"33.7807871, -118.161129","brown","normal"
"356","A586753",NA,"cat","seal point",NA,"Male",2016-03-08,2017-03-08,"normal","stray","otc",NA,2017-03-16,"1100 RAYMOND AVE, LONG BEACH, CA 90804","Long Beach","transfer","spcala",33.7807454,-118.1643953,FALSE,TRUE,"33.7807454, -118.1643953","grey","normal"
"357","A628558","regal","cat","brown  tabby",NA,"Neutered",2019-03-20,2019-06-20,"normal","stray","otc",NA,2019-06-23,"1000 LIME AVE, LONG BEACH, CA 90813","Long Beach","adoption","walkin",33.7789839,-118.183959,FALSE,TRUE,"33.7789839, -118.183959","other","normal"
"358","A628559","*betty","cat","brown  tabby",NA,"Female",2019-03-20,2019-06-20,"normal","stray","otc",NA,2019-06-28,"1000 LIME AVE, LONG BEACH, CA 90813","Long Beach","adoption","spcala",33.7789839,-118.183959,FALSE,TRUE,"33.7789839, -118.183959","other","normal"
"359","A628560","*boop","cat","brown  tabby","white","Male",2019-03-20,2019-06-20,"normal","stray","otc",NA,2019-07-12,"1000 LIME AVE, LONG BEACH, CA 90813","Long Beach","rescue","fndanifoun",33.7789839,-118.183959,FALSE,TRUE,"33.7789839, -118.183959","other","normal"
"360","A636305","*holly","cat","gray",NA,"Spayed",2019-08-16,2019-11-16,"normal","stray","otc",NA,2019-11-27,"1100 SOUTH ST, LONG BEACH CA 90805","Long Beach","adoption","walkin",33.8601126,-118.1791374,FALSE,TRUE,"33.8601126, -118.1791374","grey","normal"
"361","A636303","*julius","cat","orange",NA,"Neutered",2019-08-16,2019-11-16,"normal","stray","otc",NA,2019-11-30,"1100 SOUTH ST, LONG BEACH CA 90805","Long Beach","adoption","walkin",33.8601126,-118.1791374,FALSE,TRUE,"33.8601126, -118.1791374","orange","normal"
"362","A617422","rosey","cat","calico",NA,"Female",2015-11-10,2018-11-10,"normal","owner surrender","otc",NA,2019-01-22,"1000 MAGNOLIA AVENUE, LONG BEACH, CA 90813","Long Beach","euthanasia","beh modera",33.7789572,-118.1980407,TRUE,FALSE,"33.77895720000001, -118.1980407","multi","normal"
